[
  {
    "stop_id":"2A-200_Guelph Central Station",
    "stop_code":200,
    "stop_name":"Guelph Central Station.",
    "stop_desc":"",
    "stop_lat":43.545180,
    "stop_lon":-80.246050,
    "zone_id":"",
    "stop_url":"",
    "location_type":"",
    "parent_station":""
  },
  {
    "stop_id":"2A-202_KFC on Wellington St.",
    "stop_code":202,
    "stop_name":"KFC on Wellington St.",
    "stop_desc":"",
    "stop_lat":43.540815,
    "stop_lon":-80.245214,
    "zone_id":"",
    "stop_url":"",
    "location_type":"",
    "parent_station":""
  },
  {
    "stop_id":"2A-203_Gordon St. at Water St.",
    "stop_code":203,
    "stop_name":"Gordon St. at Water St.",
    "stop_desc":"",
    "stop_lat":43.53833,
    "stop_lon":-80.245214,
    "zone_id":"",
    "stop_url":"",
    "location_type":"",
    "parent_station":""
  },
  {
    "stop_id":"2A-204_Gordon St. at Forbes Ave.",
    "stop_code":204,
    "stop_name":"Gordon St. at Forbes Ave.",
    "stop_desc":"",
    "stop_lat":43.537154,
    "stop_lon":-80.239813,
    "zone_id":"",
    "stop_url":"",
    "location_type":"",
    "parent_station":""
  },
  {
    "stop_id":"2A-205_Gordon St. at Dean Ave.",
    "stop_code":205,
    "stop_name":"Gordon St. at Dean Ave.",
    "stop_desc":"",
    "stop_lat":43.534009,
    "stop_lon":-80.235469,
    "zone_id":"",
    "stop_url":"",
    "location_type":"",
    "parent_station":""
  },
  {
    "stop_id":"2A-206_Gordon St. at College Ave.",
    "stop_code":206,
    "stop_name":"Gordon St. at College Ave.",
    "stop_desc":"",
    "stop_lat":43.531512,
    "stop_lon":-80.231928,
    "zone_id":"",
    "stop_url":"",
    "location_type":"",
    "parent_station":""
  },
  {
    "stop_id":"2A-207_University Centre",
    "stop_code":207,
    "stop_name":"University Centre",
    "stop_desc":"",
    "stop_lat":43.529922,
    "stop_lon":-80.225029,
    "zone_id":"",
    "stop_url":"",
    "location_type":"",
    "parent_station":""
  },
  {
    "stop_id":"2A-208_Stone Rd. W. at Edinburgh Rd. S.",
    "stop_code":208,
    "stop_name":"Stone Rd. W. at Edinburgh Rd. S.",
    "stop_desc":"",
    "stop_lat":43.520363,
    "stop_lon":-80.233352,
    "zone_id":"",
    "stop_url":"",
    "location_type":"",
    "parent_station":""
  },
  {
    "stop_id":"2A-209_Stone Rd. W. at Stone Rd Mall",
    "stop_code":209,
    "stop_name":"Stone Rd. W. at Stone Rd Mall",
    "stop_desc":"",
    "stop_lat":43.518846,
    "stop_lon":-80.239222,
    "zone_id":"",
    "stop_url":"",
    "location_type":"",
    "parent_station":""
  },
  {
    "stop_id":"2A-210_659 Wellington St. W.",
    "stop_code":210,
    "stop_name":"659 Wellington St. W.",
    "stop_desc":"",
    "stop_lat":43.522836,
    "stop_lon":-80.267662,
    "zone_id":"",
    "stop_url":"",
    "location_type":"",
    "parent_station":""
  },
  {
    "stop_id":"2A-211_Fife Rd. at Wellington St. W.",
    "stop_code":211,
    "stop_name":"Fife Rd. at Wellington St. W.",
    "stop_desc":"",
    "stop_lat":43.517730,
    "stop_lon":-80.270448,
    "zone_id":"",
    "stop_url":"",
    "location_type":"",
    "parent_station":""
  },
  {
    "stop_id":"2A-212_Fife Rd. at Gateway Dr.",
    "stop_code":212,
    "stop_name":"Fife Rd. at Gateway Dr.",
    "stop_desc":"",
    "stop_lat":43.515674,
    "stop_lon":-80.273254,
    "zone_id":"",
    "stop_url":"",
    "location_type":"",
    "parent_station":""
  },
  {
    "stop_id":"2A-213_Fife Rd. at Deerfield Pl.",
    "stop_code":213,
    "stop_name":"Fife Rd. at Deerfield Pl.",
    "stop_desc":"",
    "stop_lat":43.513766,
    "stop_lon":-80.275861,
    "zone_id":"",
    "stop_url":"",
    "location_type":"",
    "parent_station":""
  },
  {
    "stop_id":"2A-214_Elmira Rd. at West Acres Dr.",
    "stop_code":214,
    "stop_name":"Elmira Rd. at West Acres Dr.",
    "stop_desc":"",
    "stop_lat":43.516248,
    "stop_lon":-80.278614,
    "zone_id":"",
    "stop_url":"",
    "location_type":"",
    "parent_station":""
  },
  {
    "stop_id":"2A-215_254 Elmira Rd.",
    "stop_code":215,
    "stop_name":"254 Elmira Rd.",
    "stop_desc":"",
    "stop_lat":43.518995,
    "stop_lon":-80.282143,
    "zone_id":"",
    "stop_url":"",
    "location_type":"",
    "parent_station":""
  },
  {
    "stop_id":"2A-216_Elmira Rd. at Stephanie Dr.",
    "stop_code":216,
    "stop_name":"Elmira Rd. at Stephanie Dr.",
    "stop_desc":"",
    "stop_lat":43.521123,
    "stop_lon":-80.287336,
    "zone_id":"",
    "stop_url":"",
    "location_type":"",
    "parent_station":""
  },
  {
    "stop_id":"2A-217_Elmira Rd. at Zehrs",
    "stop_code":217,
    "stop_name":"Elmira Rd. at Zehrs",
    "stop_desc":"",
    "stop_lat":43.522818,
    "stop_lon":-80.291611,
    "zone_id":"",
    "stop_url":"",
    "location_type":"",
    "parent_station":""
  },
  {
    "stop_id":"2A-218_Elmira Rd. at West End Community Centre",
    "stop_code":218,
    "stop_name":"Elmira Rd. at West End Community Centre",
    "stop_desc":"",
    "stop_lat":43.523519,
    "stop_lon":-80.293107,
    "zone_id":"",
    "stop_url":"",
    "location_type":"",
    "parent_station":""
  },
  {
    "stop_id":"2A-219_Willow Rd. at Flaherty Dr.",
    "stop_code":219,
    "stop_name":"Willow Rd. at Flaherty Dr.",
    "stop_desc":"",
    "stop_lat":43.527343,
    "stop_lon":-80.296881,
    "zone_id":"",
    "stop_url":"",
    "location_type":"",
    "parent_station":""
  },
  {
    "stop_id":"2A-220_Imperial Rd. N. at Willow Rd.",
    "stop_code":220,
    "stop_name":"Imperial Rd. N. at Willow Rd.",
    "stop_desc":"",
    "stop_lat":43.528815,
    "stop_lon":-80.292010,
    "zone_id":"",
    "stop_url":"",
    "location_type":"",
    "parent_station":""
  },
  {
    "stop_id":"2A-221_Imperial Rd. N. at Dunhill Cres.",
    "stop_code":221,
    "stop_name":"Imperial Rd. N. at Dunhill Cres.",
    "stop_desc":"",
    "stop_lat":43.531740,
    "stop_lon":-80.294166,
    "zone_id":"",
    "stop_url":"",
    "location_type":"",
    "parent_station":""
  },
  {
    "stop_id":"2A-222_Imperial Rd. N. at Westwood Rd.",
    "stop_code":222,
    "stop_name":"Imperial Rd. N. at Westwood Rd.",
    "stop_desc":"",
    "stop_lat":43.535013,
    "stop_lon":-80.294655,
    "zone_id":"",
    "stop_url":"",
    "location_type":"",
    "parent_station":""
  },
  {
    "stop_id":"2A-223_Imperial Rd. N. at Speedvale Ave. W.",
    "stop_code":223,
    "stop_name":"Imperial Rd. N. at Speedvale Ave. W.",
    "stop_desc":"",
    "stop_lat":43.537331,
    "stop_lon":-80.297226,
    "zone_id":"",
    "stop_url":"",
    "location_type":"",
    "parent_station":""
  },
  {
    "stop_id":"2A-224_ARC Industries",
    "stop_code":224,
    "stop_name":"ARC Industries",
    "stop_desc":"",
    "stop_lat":43.539986,
    "stop_lon":-80.294035,
    "zone_id":"",
    "stop_url":"",
    "location_type":"",
    "parent_station":""
  },
  {
    "stop_id":"2A-225_Royal Rd. at Massey Rd. (Guelph Tool)",
    "stop_code":225,
    "stop_name":"Royal Rd. at Massey Rd. (Guelph Tool)",
    "stop_desc":"",
    "stop_lat":43.543038,
    "stop_lon":-80.298273,
    "zone_id":"",
    "stop_url":"",
    "location_type":"",
    "parent_station":""
  },
  {
    "stop_id":"2A-226_Massey Rd. at Imperial Rd.",
    "stop_code":226,
    "stop_name":"Massey Rd. at Imperial Rd.",
    "stop_desc":"",
    "stop_lat":43.540892,
    "stop_lon":-80.301824,
    "zone_id":"",
    "stop_url":"",
    "location_type":"",
    "parent_station":""
  },
  {
    "stop_id":"2A-227_Imperial Rd. N. at Woodlawn Rd. W.",
    "stop_code":227,
    "stop_name":"Imperial Rd. N. at Woodlawn Rd. W.",
    "stop_desc":"",
    "stop_lat":43.543610,
    "stop_lon":-80.305658,
    "zone_id":"",
    "stop_url":"",
    "location_type":"",
    "parent_station":""
  },
  {
    "stop_id":"2A-228_Woodlawn Rd. W. at Royal Rd.",
    "stop_code":228,
    "stop_name":"Woodlawn Rd. W. at Royal Rd.",
    "stop_desc":"",
    "stop_lat":43.545962,
    "stop_lon":-80.303449,
    "zone_id":"",
    "stop_url":"",
    "location_type":"",
    "parent_station":""
  },
  {
    "stop_id":"2A-229_Woodlawn Rd. W. at Regal Rd.",
    "stop_code":229,
    "stop_name":"Woodlawn Rd. W. at Regal Rd.",
    "stop_desc":"",
    "stop_lat":43.548807,
    "stop_lon":-80.299496,
    "zone_id":"",
    "stop_url":"",
    "location_type":"",
    "parent_station":""
  },
  {
    "stop_id":"2A-230_Woodlawn Rd. W. at Silvercreek Pkwy N",
    "stop_code":230,
    "stop_name":"Woodlawn Rd. W. at Silvercreek Pkwy N",
    "stop_desc":"",
    "stop_lat":43.551565,
    "stop_lon":-80.295489,
    "zone_id":"",
    "stop_url":"",
    "location_type":"",
    "parent_station":""
  },
  {
    "stop_id":"2A-231_Woodlawn Rd. W. at Dawson Rd.",
    "stop_code":231,
    "stop_name":"Woodlawn Rd. W. at Dawson Rd.",
    "stop_desc":"",
    "stop_lat":43.556114,
    "stop_lon":-80.289684,
    "zone_id":"",
    "stop_url":"",
    "location_type":"",
    "parent_station":""
  },
  {
    "stop_id":"2A-232_Woodlawn Rd. W. at Edinburgh Rd. N.",
    "stop_code":232,
    "stop_name":"Woodlawn Rd. W. at Edinburgh Rd. N.",
    "stop_desc":"",
    "stop_lat":43.558558,
    "stop_lon":-80.286155,
    "zone_id":"",
    "stop_url":"",
    "location_type":"",
    "parent_station":""
  },
  {
    "stop_id":"2A-233_Woodlawn Rd. W. at Nicklin Rd.",
    "stop_code":233,
    "stop_name":"Woodlawn Rd. W. at Nicklin Rd.",
    "stop_desc":"",
    "stop_lat":43.560592,
    "stop_lon":-80.283493,
    "zone_id":"",
    "stop_url":"",
    "location_type":"",
    "parent_station":""
  },
  {
    "stop_id":"2A-234_Smart Centre Guelph",
    "stop_code":234,
    "stop_name":"Smart Centre Guelph",
    "stop_desc":"",
    "stop_lat":43.564044,
    "stop_lon":-80.281632,
    "zone_id":"",
    "stop_url":"",
    "location_type":"",
    "parent_station":""
  },
  {
    "stop_id":"2A-235_Woolwich St. at Marilyn Dr.",
    "stop_code":235,
    "stop_name":"Woolwich St. at Marilyn Dr.",
    "stop_desc":"",
    "stop_lat":43.562030,
    "stop_lon":-80.273414,
    "zone_id":"",
    "stop_url":"",
    "location_type":"",
    "parent_station":""
  },
  {
    "stop_id":"2A-236_Woolwich St. at Evergreen",
    "stop_code":236,
    "stop_name":"Woolwich St. at Evergreen",
    "stop_desc":"",
    "stop_lat":43.559760,
    "stop_lon":-80.270265,
    "zone_id":"",
    "stop_url":"",
    "location_type":"",
    "parent_station":""
  },
  {
    "stop_id":"2A-237_Woolwich St. at Mac Ave.",
    "stop_code":237,
    "stop_name":"Woolwich St. at Mac Ave.",
    "stop_desc":"",
    "stop_lat":43.556809,
    "stop_lon":-80.266247,
    "zone_id":"",
    "stop_url":"",
    "location_type":"",
    "parent_station":""
  },
  {
    "stop_id":"2A-238_Woolwich St. at Tiffany St.",
    "stop_code":238,
    "stop_name":"Woolwich St. at Tiffany St.",
    "stop_desc":"",
    "stop_lat":43.552521,
    "stop_lon":-80.260325,
    "zone_id":"",
    "stop_url":"",
    "location_type":"",
    "parent_station":""
  },
  {
    "stop_id":"2A-239_Woolwich St. at London Rd.",
    "stop_code":239,
    "stop_name":"Woolwich St. at London Rd.",
    "stop_desc":"",
    "stop_lat":43.549780,
    "stop_lon":-80.256575,
    "zone_id":"",
    "stop_url":"",
    "location_type":"",
    "parent_station":""
  },
  {
    "stop_id":"2A-240_160 Woolwich",
    "stop_code":240,
    "stop_name":"160 Woolwich",
    "stop_desc":"",
    "stop_lat":43.548027,
    "stop_lon":-80.25168,
    "zone_id":"",
    "stop_url":"",
    "location_type":"",
    "parent_station":""
  },
  {
    "stop_id":"2A-241_Wyndham at IF Shoe Store",
    "stop_code":241,
    "stop_name":"Wyndham at IF Shoe Store",
    "stop_desc":"",
    "stop_lat":43.545578,
    "stop_lon":-80.249017,
    "zone_id":"",
    "stop_url":"",
    "location_type":"",
    "parent_station":""
  },
  {
    "stop_id":"2A-242_Guelph Central Station",
    "stop_code":242,
    "stop_name":"Guelph Central Station",
    "stop_desc":"",
    "stop_lat":43.545180,
    "stop_lon":-80.246050,
    "zone_id":"",
    "stop_url":"",
    "location_type":"",
    "parent_station":""
  },
  {
    "stop_id":"Route2B-0250_Guelph Central Station",
    "stop_code":250,
    "stop_name":"Guelph Central Station",
    "stop_desc":"",
    "stop_lat":43.545180,
    "stop_lon":-80.246050,
    "zone_id":"",
    "stop_url":"",
    "location_type":"",
    "parent_station":""
  },
  {
    "stop_id":"Route2B-0251_Wyndham St. at Bank of Nova Scotia",
    "stop_code":251,
    "stop_name":"Wyndham St. at Bank of Nova Scotia",
    "stop_desc":"",
    "stop_lat":43.546441,
    "stop_lon":-80.249537,
    "zone_id":"",
    "stop_url":"",
    "location_type":"",
    "parent_station":""
  },
  {
    "stop_id":"Route2B-0252_Woolwich St. at Cardigan St.",
    "stop_code":252,
    "stop_name":"Woolwich St. at Cardigan St.",
    "stop_desc":"",
    "stop_lat":43.548158,
    "stop_lon":-80.251279,
    "zone_id":"",
    "stop_url":"",
    "location_type":"",
    "parent_station":""
  },
  {
    "stop_id":"Route2B-0253_Woolwich St. at Norwich St.",
    "stop_code":253,
    "stop_name":"Woolwich St. at Norwich St.",
    "stop_desc":"",
    "stop_lat":43.548768,
    "stop_lon":-80.254949,
    "zone_id":"",
    "stop_url":"",
    "location_type":"",
    "parent_station":""
  },
  {
    "stop_id":"Route2B-0254_Woolwich St. at London Rd.",
    "stop_code":254,
    "stop_name":"Woolwich St. at London Rd.",
    "stop_desc":"",
    "stop_lat":43.550097,
    "stop_lon":-80.256667,
    "zone_id":"",
    "stop_url":"",
    "location_type":"",
    "parent_station":""
  },
  {
    "stop_id":"Route2B-0255_Woolwich St. at Kerr St.",
    "stop_code":255,
    "stop_name":"Woolwich St. at Kerr St.",
    "stop_desc":"",
    "stop_lat":43.551876,
    "stop_lon":-80.259149,
    "zone_id":"",
    "stop_url":"",
    "location_type":"",
    "parent_station":""
  },
  {
    "stop_id":"Route2B-0256_Woolwich St. at Powell St.",
    "stop_code":256,
    "stop_name":"Woolwich St. at Powell St.",
    "stop_desc":"",
    "stop_lat":43.553105,
    "stop_lon":-80.260808,
    "zone_id":"",
    "stop_url":"",
    "location_type":"",
    "parent_station":""
  },
  {
    "stop_id":"Route2B-0257_Woolwich St. at Earl St.",
    "stop_code":257,
    "stop_name":"Woolwich St. at Earl St.",
    "stop_desc":"",
    "stop_lat":43.555942,
    "stop_lon":-80.264759,
    "zone_id":"",
    "stop_url":"",
    "location_type":"",
    "parent_station":""
  },
  {
    "stop_id":"Route2B-0258_Woolwich St. at Speedvale Ave.",
    "stop_code":258,
    "stop_name":"Woolwich St. at Speedvale Ave.",
    "stop_desc":"",
    "stop_lat":43.558046,
    "stop_lon":-80.267588,
    "zone_id":"",
    "stop_url":"",
    "location_type":"",
    "parent_station":""
  },
  {
    "stop_id":"Route2B-0259_Woolwich St. at Evergreen",
    "stop_code":259,
    "stop_name":"Woolwich St. at Evergreen",
    "stop_desc":"",
    "stop_lat":43.560206,
    "stop_lon":-80.270552,
    "zone_id":"",
    "stop_url":"",
    "location_type":"",
    "parent_station":""
  },
  {
    "stop_id":"Route2B-0260_Woolwich St. at Marilyn Dr.",
    "stop_code":260,
    "stop_name":"Woolwich St. at Marilyn Dr.",
    "stop_desc":"",
    "stop_lat":43.561971,
    "stop_lon":-80.272989,
    "zone_id":"",
    "stop_url":"",
    "location_type":"",
    "parent_station":""
  },
  {
    "stop_id":"Route2B-0261_Smart Centre Guelph",
    "stop_code":261,
    "stop_name":"Smart Centre Guelph",
    "stop_desc":"",
    "stop_lat":43.564940,
    "stop_lon":-80.279664,
    "zone_id":"",
    "stop_url":"",
    "location_type":"",
    "parent_station":""
  },
  {
    "stop_id":"Route2B-0262_Woodlawn Rd. W. at Nicklin Rd.",
    "stop_code":262,
    "stop_name":"Woodlawn Rd. W. at Nicklin Rd.",
    "stop_desc":"",
    "stop_lat":43.561001,
    "stop_lon":-80.283145,
    "zone_id":"",
    "stop_url":"",
    "location_type":"",
    "parent_station":""
  },
  {
    "stop_id":"Route2B-0263_Woodlawn Rd. W. at Edinburgh Rd. N.",
    "stop_code":263,
    "stop_name":"Woodlawn Rd. W. at Edinburgh Rd. N.",
    "stop_desc":"",
    "stop_lat":43.558487,
    "stop_lon":-80.286658,
    "zone_id":"",
    "stop_url":"",
    "location_type":"",
    "parent_station":""
  },
  {
    "stop_id":"Route2B-0264_Woodlawn Rd. W. at Dawson Rd.",
    "stop_code":264,
    "stop_name":"Woodlawn Rd. W. at Dawson Rd.",
    "stop_desc":"",
    "stop_lat":43.556826,
    "stop_lon":-80.288946,
    "zone_id":"",
    "stop_url":"",
    "location_type":"",
    "parent_station":""
  },
  {
    "stop_id":"Route2B-0265_Woodlawn Rd. W. at Arrow Rd.",
    "stop_code":265,
    "stop_name":"Woodlawn Rd. W. at Arrow Rd.",
    "stop_desc":"",
    "stop_lat":43.554156,
    "stop_lon":-80.292659,
    "zone_id":"",
    "stop_url":"",
    "location_type":"",
    "parent_station":""
  },
  {
    "stop_id":"Route2B-0266_Woodlawn Rd. W. at Silvercreek Pkwy. N.",
    "stop_code":266,
    "stop_name":"Woodlawn Rd. W. at Silvercreek Pkwy. N.",
    "stop_desc":"",
    "stop_lat":43.551719,
    "stop_lon":-80.295956,
    "zone_id":"",
    "stop_url":"",
    "location_type":"",
    "parent_station":""
  },
  {
    "stop_id":"Route2B-0267_Woodlawn Rd. W. at Regal Rd.",
    "stop_code":267,
    "stop_name":"Woodlawn Rd. W. at Regal Rd.",
    "stop_desc":"",
    "stop_lat":43.548709,
    "stop_lon":-80.300078,
    "zone_id":"",
    "stop_url":"",
    "location_type":"",
    "parent_station":""
  },
  {
    "stop_id":"Route2B-0268_Woodlawn Rd. W. at Royal Rd.",
    "stop_code":268,
    "stop_name":"Woodlawn Rd. W. at Royal Rd.",
    "stop_desc":"",
    "stop_lat":43.546404,
    "stop_lon":-80.303239,
    "zone_id":"",
    "stop_url":"",
    "location_type":"",
    "parent_station":""
  },
  {
    "stop_id":"Route2B-0269_Imperial Rd. N. at Woodlawn Rd. W.",
    "stop_code":269,
    "stop_name":"Imperial Rd. N. at Woodlawn Rd. W.",
    "stop_desc":"",
    "stop_lat":43.543469,
    "stop_lon":-80.305876,
    "zone_id":"",
    "stop_url":"",
    "location_type":"",
    "parent_station":""
  },
  {
    "stop_id":"Route2B-0270_Massey Rd. at Imperial Rd. N.",
    "stop_code":270,
    "stop_name":"Massey Rd. at Imperial Rd. N.",
    "stop_desc":"",
    "stop_lat":43.540880,
    "stop_lon":-80.301154,
    "zone_id":"",
    "stop_url":"",
    "location_type":"",
    "parent_station":""
  },
  {
    "stop_id":"Route2B-0271_Royal Rd. at Massey Rd.",
    "stop_code":271,
    "stop_name":"Royal Rd. at Massey Rd.",
    "stop_desc":"",
    "stop_lat":43.542591,
    "stop_lon":-80.298386,
    "zone_id":"",
    "stop_url":"",
    "location_type":"",
    "parent_station":""
  },
  {
    "stop_id":"Route2B-0272_Royal at ARC Industries",
    "stop_code":272,
    "stop_name":"Royal at ARC Industries",
    "stop_desc":"",
    "stop_lat":43.539916,
    "stop_lon":-80.294588,
    "zone_id":"",
    "stop_url":"",
    "location_type":"",
    "parent_station":""
  },
  {
    "stop_id":"Route2B-0273_Imperial Rd. N. at Speedvale Ave. W.",
    "stop_code":273,
    "stop_name":"Imperial Rd. N. at Speedvale Ave. W.",
    "stop_desc":"",
    "stop_lat":43.536579,
    "stop_lon":-80.296369,
    "zone_id":"",
    "stop_url":"",
    "location_type":"",
    "parent_station":""
  },
  {
    "stop_id":"Route2B-0274_Imperial Rd. N. at Thornhill Dr.",
    "stop_code":274,
    "stop_name":"Imperial Rd. N. at Thornhill Dr.",
    "stop_desc":"",
    "stop_lat":43.534097297637125,
    "stop_lon":-80.294730,
    "zone_id":"",
    "stop_url":"",
    "location_type":"",
    "parent_station":""
  },
  {
    "stop_id":"Route2B-0275_Imperial Rd. N. at Kipling Ave.",
    "stop_code":275,
    "stop_name":"Imperial Rd. N. at Kipling Ave.",
    "stop_desc":"",
    "stop_lat":43.530773,
    "stop_lon":-80.294209,
    "zone_id":"",
    "stop_url":"",
    "location_type":"",
    "parent_station":""
  },
  {
    "stop_id":"Route2B-0276_Imperial Rd. N. at Willow Rd.",
    "stop_code":276,
    "stop_name":"Imperial Rd. N. at Willow Rd.",
    "stop_desc":"",
    "stop_lat":43.528717,
    "stop_lon":-80.292316,
    "zone_id":"",
    "stop_url":"",
    "location_type":"",
    "parent_station":""
  },
  {
    "stop_id":"Route2B-0277_Willow Rd. at Flaherty Dr.",
    "stop_code":277,
    "stop_name":"Willow Rd. at Flaherty Dr.",
    "stop_desc":"",
    "stop_lat":43.527623,
    "stop_lon":-80.296562,
    "zone_id":"",
    "stop_url":"",
    "location_type":"",
    "parent_station":""
  },
  {
    "stop_id":"Route2B-0278_Elmira Rd. at West End Community Centre",
    "stop_code":278,
    "stop_name":"Elmira Rd. at West End Community Centre",
    "stop_desc":"",
    "stop_lat":43.523239,
    "stop_lon":-80.293729,
    "zone_id":"",
    "stop_url":"",
    "location_type":"",
    "parent_station":""
  },
  {
    "stop_id":"Route2B-0279_Elmira Rd.at Paisley",
    "stop_code":279,
    "stop_name":"Elmira Rd.at Paisley",
    "stop_desc":"",
    "stop_lat":43.521827,
    "stop_lon":-80.289727,
    "zone_id":"",
    "stop_url":"",
    "location_type":"",
    "parent_station":""
  },
  {
    "stop_id":"Route2B-0280_Elmira Rd. at Fresh Meadow Way",
    "stop_code":280,
    "stop_name":"Elmira Rd. at Fresh Meadow Way",
    "stop_desc":"",
    "stop_lat":43.518734,
    "stop_lon":-80.281997,
    "zone_id":"",
    "stop_url":"",
    "location_type":"",
    "parent_station":""
  },
  {
    "stop_id":"Route2B-0281_Elmira Rd. at Rochelle Dr.",
    "stop_code":281,
    "stop_name":"Elmira Rd. at Rochelle Dr.",
    "stop_desc":"",
    "stop_lat":43.516498,
    "stop_lon":-80.279127,
    "zone_id":"",
    "stop_url":"",
    "location_type":"",
    "parent_station":""
  },
  {
    "stop_id":"Route2B-0282_Fife Rd. at Elmira Rd.",
    "stop_code":282,
    "stop_name":"Fife Rd. at Elmira Rd.",
    "stop_desc":"",
    "stop_lat":43.513936,
    "stop_lon":-80.275264,
    "zone_id":"",
    "stop_url":"",
    "location_type":"",
    "parent_station":""
  },
  {
    "stop_id":"Route2B-0283_Fife Rd. at Gateway Dr.",
    "stop_code":283,
    "stop_name":"Fife Rd. at Gateway Dr.",
    "stop_desc":"",
    "stop_lat":43.513878,
    "stop_lon":-80.275337,
    "zone_id":"",
    "stop_url":"",
    "location_type":"",
    "parent_station":""
  },
  {
    "stop_id":"Route2B-0284_26 Fife Rd. at Coop",
    "stop_code":284,
    "stop_name":"26 Fife Rd. at Coop",
    "stop_desc":"",
    "stop_lat":43.517774,
    "stop_lon":-80.270061,
    "zone_id":"",
    "stop_url":"",
    "location_type":"",
    "parent_station":""
  },
  {
    "stop_id":"Route2B-0285_Wellington St. W. at Wastewater Treatment Plant",
    "stop_code":285,
    "stop_name":"Wellington St. W. at Wastewater Treatment Plant",
    "stop_desc":"",
    "stop_lat":43.522874,
    "stop_lon":-80.267234,
    "zone_id":"",
    "stop_url":"",
    "location_type":"",
    "parent_station":""
  },
  {
    "stop_id":"Route2B-0286_Stone Rd. W. at Scottsdale Dr.",
    "stop_code":286,
    "stop_name":"Stone Rd. W. at Scottsdale Dr.",
    "stop_desc":"",
    "stop_lat":43.516108,
    "stop_lon":-80.238548,
    "zone_id":"",
    "stop_url":"",
    "location_type":"",
    "parent_station":""
  },
  {
    "stop_id":"Route2B-0287_372 Stone Rd. W.",
    "stop_code":287,
    "stop_name":"372 Stone Rd. W.",
    "stop_desc":"",
    "stop_lat":43.517578,
    "stop_lon":-80.236634,
    "zone_id":"",
    "stop_url":"",
    "location_type":"",
    "parent_station":""
  },
  {
    "stop_id":"Route2B-0288_292 Stone Rd. W.",
    "stop_code":288,
    "stop_name":"292 Stone Rd. W.",
    "stop_desc":"",
    "stop_lat":43.519475,
    "stop_lon":-80.234214,
    "zone_id":"",
    "stop_url":"",
    "location_type":"",
    "parent_station":""
  },
  {
    "stop_id":"Route2B-0289_Stone Rd. opposite Zellers",
    "stop_code":289,
    "stop_name":"Stone Rd. opposite Zellers",
    "stop_desc":"",
    "stop_lat":43.521656,
    "stop_lon":-80.2312633395195,
    "zone_id":"",
    "stop_url":"",
    "location_type":"",
    "parent_station":""
  },
  {
    "stop_id":"Route2B-0290_95 Stone Rd. W.",
    "stop_code":290,
    "stop_name":"95 Stone Rd. W.",
    "stop_desc":"",
    "stop_lat":43.524669,
    "stop_lon":-80.227194,
    "zone_id":"",
    "stop_url":"",
    "location_type":"",
    "parent_station":""
  },
  {
    "stop_id":"Route2B-0291_University Centre",
    "stop_code":291,
    "stop_name":"University Centre",
    "stop_desc":"",
    "stop_lat":43.530139,
    "stop_lon":-80.225671,
    "zone_id":"",
    "stop_url":"",
    "location_type":"",
    "parent_station":""
  },
  {
    "stop_id":"Route2B-0292_Gordon St. at Vet College",
    "stop_code":292,
    "stop_name":"Gordon St. at Vet College",
    "stop_desc":"",
    "stop_lat":43.531442,
    "stop_lon":-80.231459,
    "zone_id":"",
    "stop_url":"",
    "location_type":"",
    "parent_station":""
  },
  {
    "stop_id":"Route2B-0293_Gordon St. at Macdonald Stewart Art Centre",
    "stop_code":293,
    "stop_name":"Gordon St. at Macdonald Stewart Art Centre",
    "stop_desc":"",
    "stop_lat":43.532842,
    "stop_lon":-80.233321,
    "zone_id":"",
    "stop_url":"",
    "location_type":"",
    "parent_station":""
  },
  {
    "stop_id":"Route2B-0294_Gordon St. at Dormie Lane",
    "stop_code":294,
    "stop_name":"Gordon St. at Dormie Lane",
    "stop_desc":"",
    "stop_lat":43.536904,
    "stop_lon":-80.239148,
    "zone_id":"",
    "stop_url":"",
    "location_type":"",
    "parent_station":""
  },
  {
    "stop_id":"Route2B-0295_Gordon St. at Water St.",
    "stop_code":295,
    "stop_name":"Gordon St. at Water St.",
    "stop_desc":"",
    "stop_lat":43.538124,
    "stop_lon":-80.240880,
    "zone_id":"",
    "stop_url":"",
    "location_type":"",
    "parent_station":""
  },
  {
    "stop_id":"Route2B-0296_Wellington St. at Wellington Plaza",
    "stop_code":296,
    "stop_name":"Wellington St. at Wellington Plaza",
    "stop_desc":"",
    "stop_lat":43.541440,
    "stop_lon":-80.244076,
    "zone_id":"",
    "stop_url":"",
    "location_type":"",
    "parent_station":""
  },
  {
    "stop_id":"Route2B-0297_Wyndham St. at Fountain St.",
    "stop_code":297,
    "stop_name":"Wyndham St. at Fountain St.",
    "stop_desc":"",
    "stop_lat":43.543369,
    "stop_lon":-80.245192,
    "zone_id":"",
    "stop_url":"",
    "location_type":"",
    "parent_station":""
  },
  {
    "stop_id":"Route2B-0298_Guelph Central Station",
    "stop_code":298,
    "stop_name":"Guelph Central Station",
    "stop_desc":"",
    "stop_lat":43.545892,
    "stop_lon":-80.249020,
    "zone_id":"",
    "stop_url":"",
    "location_type":"",
    "parent_station":""
  },
  {
    "stop_id":"Route3B-0350_Guelph Central Station",
    "stop_code":350,
    "stop_name":"Guelph Central Station",
    "stop_desc":"",
    "stop_lat":43.545180,
    "stop_lon":-80.246050,
    "zone_id":"",
    "stop_url":"",
    "location_type":"",
    "parent_station":""
  },
  {
    "stop_id":"Route3B-0351_Gordon St. at Nottingham St.",
    "stop_code":351,
    "stop_name":"Gordon St. at Nottingham St.",
    "stop_desc":"",
    "stop_lat":43.541749,
    "stop_lon":-80.247968,
    "zone_id":"",
    "stop_url":"",
    "location_type":"",
    "parent_station":""
  },
  {
    "stop_id":"Route3B-0352_Gordon St. at Wellington St.",
    "stop_code":352,
    "stop_name":"Gordon St. at Wellington St.",
    "stop_desc":"",
    "stop_lat":43.540815,
    "stop_lon":-80.245214,
    "zone_id":"",
    "stop_url":"",
    "location_type":"",
    "parent_station":""
  },
  {
    "stop_id":"Route3B-0353_Gordon St. at Water St.",
    "stop_code":353,
    "stop_name":"Gordon St. at Water St.",
    "stop_desc":"",
    "stop_lat":43.53833,
    "stop_lon":-80.245214,
    "zone_id":"",
    "stop_url":"",
    "location_type":"",
    "parent_station":""
  },
  {
    "stop_id":"Route3B-0354_Gordon St. at Forbes Ave.",
    "stop_code":354,
    "stop_name":"Gordon St. at Forbes Ave.",
    "stop_desc":"",
    "stop_lat":43.537154,
    "stop_lon":-80.239813,
    "zone_id":"",
    "stop_url":"",
    "location_type":"",
    "parent_station":""
  },
  {
    "stop_id":"Route3B-0355_Gordon St. at Dean Ave.",
    "stop_code":355,
    "stop_name":"Gordon St. at Dean Ave.",
    "stop_desc":"",
    "stop_lat":43.534009,
    "stop_lon":-80.235469,
    "zone_id":"",
    "stop_url":"",
    "location_type":"",
    "parent_station":""
  },
  {
    "stop_id":"Route3B-0356_Gordon St. at College Ave.",
    "stop_code":356,
    "stop_name":"Gordon St. at College Ave.",
    "stop_desc":"",
    "stop_lat":43.531512,
    "stop_lon":-80.231928,
    "zone_id":"",
    "stop_url":"",
    "location_type":"",
    "parent_station":""
  },
  {
    "stop_id":"Route3B-0357_University Centre",
    "stop_code":357,
    "stop_name":"University Centre",
    "stop_desc":"",
    "stop_lat":43.529922,
    "stop_lon":-80.225029,
    "zone_id":"",
    "stop_url":"",
    "location_type":"",
    "parent_station":""
  },
  {
    "stop_id":"Route3B-0358_Stone Rd. E. at Arbour Medical Centre",
    "stop_code":358,
    "stop_name":"Stone Rd. E. at Arbour Medical Centre",
    "stop_desc":"",
    "stop_lat":43.533101,
    "stop_lon":-80.215941,
    "zone_id":"",
    "stop_url":"",
    "location_type":"",
    "parent_station":""
  },
  {
    "stop_id":"Route3B-0359_Victoria Rd. S. at Stone Rd. E.",
    "stop_code":359,
    "stop_name":"Victoria Rd. S. at Stone Rd. E.",
    "stop_desc":"",
    "stop_lat":43.538966,
    "stop_lon":-80.208101,
    "zone_id":"",
    "stop_url":"",
    "location_type":"",
    "parent_station":""
  },
  {
    "stop_id":"Route3B-0360_535 York Rd. at Tim Hortons",
    "stop_code":360,
    "stop_name":"535 York Rd. at Tim Hortons",
    "stop_desc":"",
    "stop_lat":43.552095,
    "stop_lon":-80.223504,
    "zone_id":"",
    "stop_url":"",
    "location_type":"",
    "parent_station":""
  },
  {
    "stop_id":"Route3B-0361_York Rd. at Beaumont Cres.",
    "stop_code":361,
    "stop_name":"York Rd. at Beaumont Cres.",
    "stop_desc":"",
    "stop_lat":43.554649,
    "stop_lon":-80.22002,
    "zone_id":"",
    "stop_url":"",
    "location_type":"",
    "parent_station":""
  },
  {
    "stop_id":"Route3B-0362_728 York Rd.",
    "stop_code":362,
    "stop_name":"728 York Rd.",
    "stop_desc":"",
    "stop_lat":43.556909,
    "stop_lon":-80.216868,
    "zone_id":"",
    "stop_url":"",
    "location_type":"",
    "parent_station":""
  },
  {
    "stop_id":"Route3B-0363_785 York Rd.",
    "stop_code":363,
    "stop_name":"785 York Rd.",
    "stop_desc":"",
    "stop_lat":43.558812,
    "stop_lon":-80.214229,
    "zone_id":"",
    "stop_url":"",
    "location_type":"",
    "parent_station":""
  },
  {
    "stop_id":"Route3B-0364_York Rd. At Watson Pkwy. N.",
    "stop_code":364,
    "stop_name":"York Rd. At Watson Pkwy. N.",
    "stop_desc":"",
    "stop_lat":43.561500,
    "stop_lon":-80.210523,
    "zone_id":"",
    "stop_url":"",
    "location_type":"",
    "parent_station":""
  },
  {
    "stop_id":"Route3B-0365_Watson Pkwy. N. opposite Library",
    "stop_code":365,
    "stop_name":"Watson Pkwy. N. opposite Library",
    "stop_desc":"",
    "stop_lat":43.566523,
    "stop_lon":-80.211495,
    "zone_id":"",
    "stop_url":"",
    "location_type":"",
    "parent_station":""
  },
  {
    "stop_id":"Route3B-0366_Watson Pkwy. N. at Fleming Rd.",
    "stop_code":366,
    "stop_name":"Watson Pkwy. N. at Fleming Rd.",
    "stop_desc":"",
    "stop_lat":43.570403,
    "stop_lon":-80.213451,
    "zone_id":"",
    "stop_url":"",
    "location_type":"",
    "parent_station":""
  },
  {
    "stop_id":"Route3B-0367_Watson Pkwy. N. at Grange Rd.",
    "stop_code":367,
    "stop_name":"Watson Pkwy. N. at Grange Rd.",
    "stop_desc":"",
    "stop_lat":43.573888,
    "stop_lon":-80.218251,
    "zone_id":"",
    "stop_url":"",
    "location_type":"",
    "parent_station":""
  },
  {
    "stop_id":"Route3B-0368_Watson Pkwy. N. at  Eastview Rd.",
    "stop_code":368,
    "stop_name":"Watson Pkwy. N. at  Eastview Rd.",
    "stop_desc":"",
    "stop_lat":43.577843,
    "stop_lon":-80.223768,
    "zone_id":"",
    "stop_url":"",
    "location_type":"",
    "parent_station":""
  },
  {
    "stop_id":"Route3B-0369_Eastview Rd. at Summit Ridge Dr.",
    "stop_code":369,
    "stop_name":"Eastview Rd. at Summit Ridge Dr.",
    "stop_desc":"",
    "stop_lat":43.572774,
    "stop_lon":-80.231459,
    "zone_id":"",
    "stop_url":"",
    "location_type":"",
    "parent_station":""
  },
  {
    "stop_id":"Route3B-0370_Eastview Rd. at Starwood Dr.",
    "stop_code":370,
    "stop_name":"Eastview Rd. at Starwood Dr.",
    "stop_desc":"",
    "stop_lat":43.570083,
    "stop_lon":-80.235092,
    "zone_id":"",
    "stop_url":"",
    "location_type":"",
    "parent_station":""
  },
  {
    "stop_id":"Route3B-0371_Eastview Rd. at Mountford Dr.",
    "stop_code":371,
    "stop_name":"Eastview Rd. at Mountford Dr.",
    "stop_desc":"",
    "stop_lat":43.567393,
    "stop_lon":-80.238771,
    "zone_id":"",
    "stop_url":"",
    "location_type":"",
    "parent_station":""
  },
  {
    "stop_id":"Route3B-0372_Eastview Rd. at Victoria Rd.",
    "stop_code":372,
    "stop_name":"Eastview Rd. at Victoria Rd.",
    "stop_desc":"",
    "stop_lat":43.565032,
    "stop_lon":-80.241989,
    "zone_id":"",
    "stop_url":"",
    "location_type":"",
    "parent_station":""
  },
  {
    "stop_id":"Route3B-0373_211 Victoria Rd. N.",
    "stop_code":373,
    "stop_name":"211 Victoria Rd. N.",
    "stop_desc":"",
    "stop_lat":43.567067,
    "stop_lon":-80.244971,
    "zone_id":"",
    "stop_url":"",
    "location_type":"",
    "parent_station":""
  },
  {
    "stop_id":"Route3B-0374_Victoria Rd. N. at Eramosa Rd.",
    "stop_code":374,
    "stop_name":"Victoria Rd. N. at Eramosa Rd.",
    "stop_desc":"",
    "stop_lat":43.56962,
    "stop_lon":-80.248568,
    "zone_id":"",
    "stop_url":"",
    "location_type":"",
    "parent_station":""
  },
  {
    "stop_id":"Route3B-0375_Victoria Rd. N. at Speedvale Ave. E.",
    "stop_code":375,
    "stop_name":"Victoria Rd. N. at Speedvale Ave. E.",
    "stop_desc":"",
    "stop_lat":43.57197,
    "stop_lon":-80.251773,
    "zone_id":"",
    "stop_url":"",
    "location_type":"",
    "parent_station":""
  },
  {
    "stop_id":"Route3B-0376_Victoria Rd. N. at Brant Ave.",
    "stop_code":376,
    "stop_name":"Victoria Rd. N. at Brant Ave.",
    "stop_desc":"",
    "stop_lat":43.575281,
    "stop_lon":-80.256345,
    "zone_id":"",
    "stop_url":"",
    "location_type":"",
    "parent_station":""
  },
  {
    "stop_id":"Route3B-0377_Victoria Rd. N. at Woodlawn Rd. E.",
    "stop_code":377,
    "stop_name":"Victoria Rd. N. at Woodlawn Rd. E.",
    "stop_desc":"",
    "stop_lat":43.578063,
    "stop_lon":-80.260204,
    "zone_id":"",
    "stop_url":"",
    "location_type":"",
    "parent_station":""
  },
  {
    "stop_id":"Route3B-0378_Victoria Rd. N. opposite Trillium Waldorf",
    "stop_code":378,
    "stop_name":"Victoria Rd. N. opposite Trillium Waldorf",
    "stop_desc":"",
    "stop_lat":43.580826,
    "stop_lon":-80.264077,
    "zone_id":"",
    "stop_url":"",
    "location_type":"",
    "parent_station":""
  },
  {
    "stop_id":"Route3B-0379_Inverness Dr. at Wilton Rd.",
    "stop_code":379,
    "stop_name":"Inverness Dr. at Wilton Rd.",
    "stop_desc":"",
    "stop_lat":43.579009,
    "stop_lon":-80.266687,
    "zone_id":"",
    "stop_url":"",
    "location_type":"",
    "parent_station":""
  },
  {
    "stop_id":"Route3B-0380_Inverness Dr. at Woodlawn Rd.",
    "stop_code":380,
    "stop_name":"Inverness Dr. at Woodlawn Rd.",
    "stop_desc":"",
    "stop_lat":43.576353,
    "stop_lon":-80.262822,
    "zone_id":"",
    "stop_url":"",
    "location_type":"",
    "parent_station":""
  },
  {
    "stop_id":"Route3B-0381_Woodlawn Rd. E. at Golfview Dr.",
    "stop_code":381,
    "stop_name":"Woodlawn Rd. E. at Golfview Dr.",
    "stop_desc":"",
    "stop_lat":43.574227,
    "stop_lon":-80.264853,
    "zone_id":"",
    "stop_url":"",
    "location_type":"",
    "parent_station":""
  },
  {
    "stop_id":"Route3B-0382_Woodlawn Rd. E. at Country Club Dr.",
    "stop_code":382,
    "stop_name":"Woodlawn Rd. E. at Country Club Dr.",
    "stop_desc":"",
    "stop_lat":43.571818,
    "stop_lon":-80.268227,
    "zone_id":"",
    "stop_url":"",
    "location_type":"",
    "parent_station":""
  },
  {
    "stop_id":"Route3B-0383_Woodlawn Rd. E. at Riverside Glen",
    "stop_code":383,
    "stop_name":"Woodlawn Rd. E. at Riverside Glen",
    "stop_desc":"",
    "stop_lat":43.568609,
    "stop_lon":-80.272695,
    "zone_id":"",
    "stop_url":"",
    "location_type":"",
    "parent_station":""
  },
  {
    "stop_id":"Route3B-0384_Woodlawn Rd. E. at Canadian Tire",
    "stop_code":384,
    "stop_name":"Woodlawn Rd. E. at Canadian Tire",
    "stop_desc":"",
    "stop_lat":43.566001,
    "stop_lon":-80.276314,
    "zone_id":"",
    "stop_url":"",
    "location_type":"",
    "parent_station":""
  },
  {
    "stop_id":"Route3B-0385_Smart Centre Guelph",
    "stop_code":385,
    "stop_name":"Smart Centre Guelph",
    "stop_desc":"",
    "stop_lat":43.56494,
    "stop_lon":-80.279664,
    "zone_id":"",
    "stop_url":"",
    "location_type":"",
    "parent_station":""
  },
  {
    "stop_id":"Route3B-0386_Nicklin Rd. at Burns Dr.",
    "stop_code":386,
    "stop_name":"Nicklin Rd. at Burns Dr.",
    "stop_desc":"",
    "stop_lat":43.558355,
    "stop_lon":-80.280122,
    "zone_id":"",
    "stop_url":"",
    "location_type":"",
    "parent_station":""
  },
  {
    "stop_id":"Route3B-0387_Bailey Ave. at Kathleen St.",
    "stop_code":387,
    "stop_name":"Bailey Ave. at Kathleen St.",
    "stop_desc":"",
    "stop_lat":43.557298,
    "stop_lon":-80.276217,
    "zone_id":"",
    "stop_url":"",
    "location_type":"",
    "parent_station":""
  },
  {
    "stop_id":"Route3B-0388_Kathleen St. at Speedvale Ave. W.",
    "stop_code":388,
    "stop_name":"Kathleen St. at Speedvale Ave. W.",
    "stop_desc":"",
    "stop_lat":43.555549,
    "stop_lon":-80.27256,
    "zone_id":"",
    "stop_url":"",
    "location_type":"",
    "parent_station":""
  },
  {
    "stop_id":"Route3B-0389_Westmount Rd. at Kimberley Dr.",
    "stop_code":389,
    "stop_name":"Westmount Rd. at Kimberley Dr.",
    "stop_desc":"",
    "stop_lat":43.553154,
    "stop_lon":-80.274126,
    "zone_id":"",
    "stop_url":"",
    "location_type":"",
    "parent_station":""
  },
  {
    "stop_id":"Route3B-0390_St. Joseph's Health Centre",
    "stop_code":390,
    "stop_name":"St. Joseph's Health Centre",
    "stop_desc":"",
    "stop_lat":43.549794,
    "stop_lon":-80.269589,
    "zone_id":"",
    "stop_url":"",
    "location_type":"",
    "parent_station":""
  },
  {
    "stop_id":"Route3B-0391_Westmount Rd. at Division St.",
    "stop_code":391,
    "stop_name":"Westmount Rd. at Division St.",
    "stop_desc":"",
    "stop_lat":43.550158,
    "stop_lon":-80.270008,
    "zone_id":"",
    "stop_url":"",
    "location_type":"",
    "parent_station":""
  },
  {
    "stop_id":"Route3B-0392_Westmount Rd. at Lourdes",
    "stop_code":392,
    "stop_name":"Westmount Rd. at Lourdes",
    "stop_desc":"",
    "stop_lat":43.548554,
    "stop_lon":-80.267786,
    "zone_id":"",
    "stop_url":"",
    "location_type":"",
    "parent_station":""
  },
  {
    "stop_id":"Route3B-0393_Westmount Rd. at London Rd. W.",
    "stop_code":393,
    "stop_name":"Westmount Rd. at London Rd. W.",
    "stop_desc":"",
    "stop_lat":43.545476,
    "stop_lon":-80.263459,
    "zone_id":"",
    "stop_url":"",
    "location_type":"",
    "parent_station":""
  },
  {
    "stop_id":"Route3B-0394_Yorkshire St. N. at Home St.",
    "stop_code":394,
    "stop_name":"Yorkshire St. N. at Home St.",
    "stop_desc":"",
    "stop_lat":43.545781,
    "stop_lon":-80.261342,
    "zone_id":"",
    "stop_url":"",
    "location_type":"",
    "parent_station":""
  },
  {
    "stop_id":"Route3B-0395_Suffolk St. at Glasgow St.",
    "stop_code":395,
    "stop_name":"Suffolk St. at Glasgow St.",
    "stop_desc":"",
    "stop_lat":43.545368,
    "stop_lon":-80.258562,
    "zone_id":"",
    "stop_url":"",
    "location_type":"",
    "parent_station":""
  },
  {
    "stop_id":"Route3B-0396_Suffolk St. at Dublin St. Church",
    "stop_code":396,
    "stop_name":"Suffolk St. at Dublin St. Church",
    "stop_desc":"",
    "stop_lat":43.546335,
    "stop_lon":-80.256689,
    "zone_id":"",
    "stop_url":"",
    "location_type":"",
    "parent_station":""
  },
  {
    "stop_id":"Route3B-0397_160 Woolwich.",
    "stop_code":397,
    "stop_name":"160 Woolwich.",
    "stop_desc":"",
    "stop_lat":43.548027,
    "stop_lon":-80.25168,
    "zone_id":"",
    "stop_url":"",
    "location_type":"",
    "parent_station":""
  },
  {
    "stop_id":"Route3B-0398_Wyndham at IF Shoe Store",
    "stop_code":398,
    "stop_name":"Wyndham at IF Shoe Store",
    "stop_desc":"",
    "stop_lat":43.545578,
    "stop_lon":-80.249017,
    "zone_id":"",
    "stop_url":"",
    "location_type":"",
    "parent_station":""
  },
  {
    "stop_id":"Route3B-0399_Guelph Central Station",
    "stop_code":399,
    "stop_name":"Guelph Central Station",
    "stop_desc":"",
    "stop_lat":43.545180,
    "stop_lon":-80.246050,
    "zone_id":"",
    "stop_url":"",
    "location_type":"",
    "parent_station":""
  },
  {
    "stop_id":"Route4-400_Guelph Central Station",
    "stop_code":400,
    "stop_name":"Guelph Central Station",
    "stop_desc":"",
    "stop_lat":43.54582712,
    "stop_lon":-80.24580414,
    "zone_id":"",
    "stop_url":"",
    "location_type":"",
    "parent_station":""
  },
  {
    "stop_id":"Route4-401_Neeve St. at Ontario St.",
    "stop_code":401,
    "stop_name":"Neeve St. at Ontario St.",
    "stop_desc":"",
    "stop_lat":43.54413676,
    "stop_lon":-80.24097264,
    "zone_id":"",
    "stop_url":"",
    "location_type":"",
    "parent_station":""
  },
  {
    "stop_id":"Route4-402_Ontario St at Manitoba St.",
    "stop_code":402,
    "stop_name":"Ontario St at Manitoba St.",
    "stop_desc":"",
    "stop_lat":43.54470417,
    "stop_lon":-80.23730491,
    "zone_id":"",
    "stop_url":"",
    "location_type":"",
    "parent_station":""
  },
  {
    "stop_id":"Route4-403_168 Ontario St.",
    "stop_code":403,
    "stop_name":"168 Ontario St.",
    "stop_desc":"",
    "stop_lat":43.54520196,
    "stop_lon":-80.23469665,
    "zone_id":"",
    "stop_url":"",
    "location_type":"",
    "parent_station":""
  },
  {
    "stop_id":"Route4-404_Ontario St. at York Rd.",
    "stop_code":404,
    "stop_name":"Ontario St. at York Rd.",
    "stop_desc":"",
    "stop_lat":43.54552549,
    "stop_lon":-80.23274047,
    "zone_id":"",
    "stop_url":"",
    "location_type":"",
    "parent_station":""
  },
  {
    "stop_id":"Route4-405_York Rd. at Morris St.",
    "stop_code":405,
    "stop_name":"York Rd. at Morris St.",
    "stop_desc":"",
    "stop_lat":43.54671213,
    "stop_lon":-80.23080247,
    "zone_id":"",
    "stop_url":"",
    "location_type":"",
    "parent_station":""
  },
  {
    "stop_id":"Route4-406_York Rd. at Brockville Ave.",
    "stop_code":406,
    "stop_name":"York Rd. at Brockville Ave.",
    "stop_desc":"",
    "stop_lat":43.54913612,
    "stop_lon":-80.22756837,
    "zone_id":"",
    "stop_url":"",
    "location_type":"",
    "parent_station":""
  },
  {
    "stop_id":"Route4-407_York Rd. at Audrey Ave.",
    "stop_code":407,
    "stop_name":"York Rd. at Audrey Ave.",
    "stop_desc":"",
    "stop_lat":43.55078627,
    "stop_lon":-80.22533313,
    "zone_id":"",
    "stop_url":"",
    "location_type":"",
    "parent_station":""
  },
  {
    "stop_id":"Route4-408_535 York Rd. at Tim Hortons",
    "stop_code":408,
    "stop_name":"535 York Rd. at Tim Hortons",
    "stop_desc":"",
    "stop_lat":43.55223214,
    "stop_lon":-80.22329365,
    "zone_id":"",
    "stop_url":"",
    "location_type":"",
    "parent_station":""
  },
  {
    "stop_id":"Route4-409_York Rd. at Beaumont Cres.",
    "stop_code":409,
    "stop_name":"York Rd. at Beaumont Cres.",
    "stop_desc":"",
    "stop_lat":43.55458284,
    "stop_lon":-80.22014686,
    "zone_id":"",
    "stop_url":"",
    "location_type":"",
    "parent_station":""
  },
  {
    "stop_id":"Route4-410_728 York Rd.",
    "stop_code":410,
    "stop_name":"728 York Rd.",
    "stop_desc":"",
    "stop_lat":43.55693523,
    "stop_lon":-80.21688324,
    "zone_id":"",
    "stop_url":"",
    "location_type":"",
    "parent_station":""
  },
  {
    "stop_id":"Route4-411_895 York Rd.",
    "stop_code":411,
    "stop_name":"895 York Rd.",
    "stop_desc":"",
    "stop_lat":43.55872643,
    "stop_lon":-80.21438384,
    "zone_id":"",
    "stop_url":"",
    "location_type":"",
    "parent_station":""
  },
  {
    "stop_id":"Route4-412_York Rd. at Watson Pkwy. N.",
    "stop_code":412,
    "stop_name":"York Rd. at Watson Pkwy. N.",
    "stop_desc":"",
    "stop_lat":43.56153565,
    "stop_lon":-80.21054688,
    "zone_id":"",
    "stop_url":"",
    "location_type":"",
    "parent_station":""
  },
  {
    "stop_id":"Route4-413_York Rd. at Graniteworx",
    "stop_code":413,
    "stop_name":"York Rd. at Graniteworx",
    "stop_desc":"",
    "stop_lat":43.56350386,
    "stop_lon":-80.20788965,
    "zone_id":"",
    "stop_url":"",
    "location_type":"",
    "parent_station":""
  },
  {
    "stop_id":"Route4-414_Watson Rd. S. at York Rd.",
    "stop_code":414,
    "stop_name":"Watson Rd. S. at York Rd.",
    "stop_desc":"",
    "stop_lat":43.56449176,
    "stop_lon":-80.20546404,
    "zone_id":"",
    "stop_url":"",
    "location_type":"",
    "parent_station":""
  },
  {
    "stop_id":"Route4-415_Watson Rd. S. at Airpark Pl.",
    "stop_code":415,
    "stop_name":"Watson Rd. S. at Airpark Pl.",
    "stop_desc":"",
    "stop_lat":43.56243048,
    "stop_lon":-80.20258634,
    "zone_id":"",
    "stop_url":"",
    "location_type":"",
    "parent_station":""
  },
  {
    "stop_id":"Route4-416_Watson Rd. S. at Guelph Transit Centre",
    "stop_code":416,
    "stop_name":"Watson Rd. S. at Guelph Transit Centre",
    "stop_desc":"",
    "stop_lat":43.5605435,
    "stop_lon":-80.19994552,
    "zone_id":"",
    "stop_url":"",
    "location_type":"",
    "parent_station":""
  },
  {
    "stop_id":"Route4-417_Watson Pkwy. S. at Dunlop Dr.",
    "stop_code":417,
    "stop_name":"Watson Pkwy. S. at Dunlop Dr.",
    "stop_desc":"",
    "stop_lat":43.55799165,
    "stop_lon":-80.19896715,
    "zone_id":"",
    "stop_url":"",
    "location_type":"",
    "parent_station":""
  },
  {
    "stop_id":"Route4-418_Watson Pkwy. S. at Cargill",
    "stop_code":418,
    "stop_name":"Watson Pkwy. S. at Cargill",
    "stop_desc":"",
    "stop_lat":43.55905022,
    "stop_lon":-80.20286232,
    "zone_id":"",
    "stop_url":"",
    "location_type":"",
    "parent_station":""
  },
  {
    "stop_id":"Route4-419_Watson Pkwy. S. at Taggert St.",
    "stop_code":419,
    "stop_name":"Watson Pkwy. S. at Taggert St.",
    "stop_desc":"",
    "stop_lat":43.56028046,
    "stop_lon":-80.20619722,
    "zone_id":"",
    "stop_url":"",
    "location_type":"",
    "parent_station":""
  },
  {
    "stop_id":"Route4-420_York Rd. at Watson Pkwy. N.",
    "stop_code":420,
    "stop_name":"York Rd. at Watson Pkwy. N.",
    "stop_desc":"",
    "stop_lat":43.56151064,
    "stop_lon":-80.21082655,
    "zone_id":"",
    "stop_url":"",
    "location_type":"",
    "parent_station":""
  },
  {
    "stop_id":"Route4-421_York Rd. at Yorkhaven Pl..",
    "stop_code":421,
    "stop_name":"York Rd. at Yorkhaven Pl..",
    "stop_desc":"",
    "stop_lat":43.55847725,
    "stop_lon":-80.21503684,
    "zone_id":"",
    "stop_url":"",
    "location_type":"",
    "parent_station":""
  },
  {
    "stop_id":"Route4-422_York Rd. at Royal City Jaycees Park",
    "stop_code":422,
    "stop_name":"York Rd. at Royal City Jaycees Park",
    "stop_desc":"",
    "stop_lat":43.55703595,
    "stop_lon":-80.21700185,
    "zone_id":"",
    "stop_url":"",
    "location_type":"",
    "parent_station":""
  },
  {
    "stop_id":"Route4-423_York Rd. at Beaumont Cres.",
    "stop_code":423,
    "stop_name":"York Rd. at Beaumont Cres.",
    "stop_desc":"",
    "stop_lat":43.55493605,
    "stop_lon":-80.21990711,
    "zone_id":"",
    "stop_url":"",
    "location_type":"",
    "parent_station":""
  },
  {
    "stop_id":"Route4-424_York Rd. at Victoria Rd.",
    "stop_code":424,
    "stop_name":"York Rd. at Victoria Rd.",
    "stop_desc":"",
    "stop_lat":43.55154516,
    "stop_lon":-80.22455892,
    "zone_id":"",
    "stop_url":"",
    "location_type":"",
    "parent_station":""
  },
  {
    "stop_id":"Route4-425_York Rd. at Brockville Ave.",
    "stop_code":425,
    "stop_name":"York Rd. at Brockville Ave.",
    "stop_desc":"",
    "stop_lat":43.54905218,
    "stop_lon":-80.22787225,
    "zone_id":"",
    "stop_url":"",
    "location_type":"",
    "parent_station":""
  },
  {
    "stop_id":"Route4-426_York Rd. at Harris St.",
    "stop_code":426,
    "stop_name":"York Rd. at Harris St.",
    "stop_desc":"",
    "stop_lat":43.54753114,
    "stop_lon":-80.22995403,
    "zone_id":"",
    "stop_url":"",
    "location_type":"",
    "parent_station":""
  },
  {
    "stop_id":"Route4-427_Ontario St. at Huron St.",
    "stop_code":427,
    "stop_name":"Ontario St. at Huron St.",
    "stop_desc":"",
    "stop_lat":43.5456181,
    "stop_lon":-80.23307566,
    "zone_id":"",
    "stop_url":"",
    "location_type":"",
    "parent_station":""
  },
  {
    "stop_id":"Route4-428_70 Ontario St.",
    "stop_code":428,
    "stop_name":"70 Ontario St.",
    "stop_desc":"",
    "stop_lat":43.54485745,
    "stop_lon":-80.23718307,
    "zone_id":"",
    "stop_url":"",
    "location_type":"",
    "parent_station":""
  },
  {
    "stop_id":"Route4-429_Ontario St. at Neeve St.",
    "stop_code":429,
    "stop_name":"Ontario St. at Neeve St.",
    "stop_desc":"",
    "stop_lat":43.54426392,
    "stop_lon":-80.2402114,
    "zone_id":"",
    "stop_url":"",
    "location_type":"",
    "parent_station":""
  },
  {
    "stop_id":"Route4-430_Guelph Central Station",
    "stop_code":430,
    "stop_name":"Guelph Central Station",
    "stop_desc":"",
    "stop_lat":43.56127596,
    "stop_lon":-80.20764978,
    "zone_id":"",
    "stop_url":"",
    "location_type":"",
    "parent_station":""
  },
  {
    "stop_id":"Route10-1000_Guelph Central Station",
    "stop_code":1000,
    "stop_name":"Guelph Central Station",
    "stop_desc":"",
    "stop_lat":43.545395,
    "stop_lon":-80.246324,
    "zone_id":"",
    "stop_url":"",
    "location_type":"",
    "parent_station":""
  },
  {
    "stop_id":"Route10-1001_Quebec St. at B.M.O.",
    "stop_code":1001,
    "stop_name":"Quebec St. at B.M.O.",
    "stop_desc":"",
    "stop_lat":43.545816,
    "stop_lon":-80.249985,
    "zone_id":"",
    "stop_url":"",
    "location_type":"",
    "parent_station":""
  },
  {
    "stop_id":"Route10-1002_Paisley St. at Library",
    "stop_code":1002,
    "stop_name":"Paisley St. at Library",
    "stop_desc":"",
    "stop_lat":43.545416,
    "stop_lon":-80.252869,
    "zone_id":"",
    "stop_url":"",
    "location_type":"",
    "parent_station":""
  },
  {
    "stop_id":"Route10-1003_Paisley St. at Glasgow St.",
    "stop_code":1003,
    "stop_name":"Paisley St. at Glasgow St.",
    "stop_desc":"",
    "stop_lat":43.543483,
    "stop_lon":-80.256727,
    "zone_id":"",
    "stop_url":"",
    "location_type":"",
    "parent_station":""
  },
  {
    "stop_id":"Route10-1004_Paisley St. at G.C.V.I.",
    "stop_code":1004,
    "stop_name":"Paisley St. at G.C.V.I.",
    "stop_desc":"",
    "stop_lat":43.542421,
    "stop_lon":-80.258820,
    "zone_id":"",
    "stop_url":"",
    "location_type":"",
    "parent_station":""
  },
  {
    "stop_id":"Route10-1005_Paisley St. at Harrison Ave.",
    "stop_code":1005,
    "stop_name":"Paisley St. at Harrison Ave.",
    "stop_desc":"",
    "stop_lat":43.541522,
    "stop_lon":-80.260557,
    "zone_id":"",
    "stop_url":"",
    "location_type":"",
    "parent_station":""
  },
  {
    "stop_id":"Route10-1006_Paisley St. at Edinburgh Rd. N.",
    "stop_code":1006,
    "stop_name":"Paisley St. at Edinburgh Rd. N.",
    "stop_desc":"",
    "stop_lat":43.540699,
    "stop_lon":-80.263171,
    "zone_id":"",
    "stop_url":"",
    "location_type":"",
    "parent_station":""
  },
  {
    "stop_id":"Route10-1007_Paisley Rd. at Alma St.",
    "stop_code":1007,
    "stop_name":"Paisley Rd. at Alma St.",
    "stop_desc":"",
    "stop_lat":43.538862,
    "stop_lon":-80.265657,
    "zone_id":"",
    "stop_url":"",
    "location_type":"",
    "parent_station":""
  },
  {
    "stop_id":"Route10-1008_Paisley Rd. at Western Ave.",
    "stop_code":1008,
    "stop_name":"Paisley Rd. at Western Ave.",
    "stop_desc":"",
    "stop_lat":43.536467,
    "stop_lon":-80.268935,
    "zone_id":"",
    "stop_url":"",
    "location_type":"",
    "parent_station":""
  },
  {
    "stop_id":"Route10-1009_Paisley Rd. at Heath Rd.",
    "stop_code":1009,
    "stop_name":"Paisley Rd. at Heath Rd.",
    "stop_desc":"",
    "stop_lat":43.534616,
    "stop_lon":-80.271486,
    "zone_id":"",
    "stop_url":"",
    "location_type":"",
    "parent_station":""
  },
  {
    "stop_id":"Route10-1010_Westwood Rd. at Silvercreek Pkwy. N.",
    "stop_code":1010,
    "stop_name":"Westwood Rd. at Silvercreek Pkwy. N.",
    "stop_desc":"",
    "stop_lat":43.535150,
    "stop_lon":-80.275370,
    "zone_id":"",
    "stop_url":"",
    "location_type":"",
    "parent_station":""
  },
  {
    "stop_id":"Route10-1011_85 Westwood Rd.",
    "stop_code":1011,
    "stop_name":"85 Westwood Rd.",
    "stop_desc":"",
    "stop_lat":43.532712,
    "stop_lon":-80.278921,
    "zone_id":"",
    "stop_url":"",
    "location_type":"",
    "parent_station":""
  },
  {
    "stop_id":"Route10-1012_225 Westwood Rd.",
    "stop_code":1012,
    "stop_name":"225 Westwood Rd.",
    "stop_desc":"",
    "stop_lat":43.532762,
    "stop_lon":-80.285243,
    "zone_id":"",
    "stop_url":"",
    "location_type":"",
    "parent_station":""
  },
  {
    "stop_id":"Route10-1013_Willow Rd. at Westwood Rd.",
    "stop_code":1013,
    "stop_name":"Willow Rd. at Westwood Rd.",
    "stop_desc":"",
    "stop_lat":43.533285,
    "stop_lon":-80.288209,
    "zone_id":"",
    "stop_url":"",
    "location_type":"",
    "parent_station":""
  },
  {
    "stop_id":"Route10-1014_577 Willow Rd. at Church",
    "stop_code":1014,
    "stop_name":"577 Willow Rd. at Church",
    "stop_desc":"",
    "stop_lat":43.531384,
    "stop_lon":-80.290685,
    "zone_id":"",
    "stop_url":"",
    "location_type":"",
    "parent_station":""
  },
  {
    "stop_id":"Route10-1015_Imperial Rd. S. at Ferman Dr.",
    "stop_code":1015,
    "stop_name":"Imperial Rd. S. at Ferman Dr.",
    "stop_desc":"",
    "stop_lat":43.527646,
    "stop_lon":-80.290672,
    "zone_id":"",
    "stop_url":"",
    "location_type":"",
    "parent_station":""
  },
  {
    "stop_id":"Route10-1016_West End Community Centre",
    "stop_code":1016,
    "stop_name":"West End Community Centre",
    "stop_desc":"",
    "stop_lat":43.522344,
    "stop_lon":-80.291079,
    "zone_id":"",
    "stop_url":"",
    "location_type":"",
    "parent_station":""
  },
  {
    "stop_id":"Route10-1017_926 Paisley Rd.",
    "stop_code":1017,
    "stop_name":"926 Paisley Rd.",
    "stop_desc":"",
    "stop_lat":43.526110,
    "stop_lon":-80.285423,
    "zone_id":"",
    "stop_url":"",
    "location_type":"",
    "parent_station":""
  },
  {
    "stop_id":"Route10-1018_Paisley Rd. at Candlewood Dr.",
    "stop_code":1018,
    "stop_name":"Paisley Rd. at Candlewood Dr.",
    "stop_desc":"",
    "stop_lat":43.529005,
    "stop_lon":-80.279237,
    "zone_id":"",
    "stop_url":"",
    "location_type":"",
    "parent_station":""
  },
  {
    "stop_id":"Route10-1019_Paisley Rd. at West Hill Estates",
    "stop_code":1019,
    "stop_name":"Paisley Rd. at West Hill Estates",
    "stop_desc":"",
    "stop_lat":43.530899,
    "stop_lon":-80.276021,
    "zone_id":"",
    "stop_url":"",
    "location_type":"",
    "parent_station":""
  },
  {
    "stop_id":"Route10-1020_Paisley Rd. at Heath Rd.",
    "stop_code":1020,
    "stop_name":"Paisley Rd. at Heath Rd.",
    "stop_desc":"",
    "stop_lat":43.534478,
    "stop_lon":-80.271486,
    "zone_id":"",
    "stop_url":"",
    "location_type":"",
    "parent_station":""
  },
  {
    "stop_id":"Route10-1021_Paisley Rd. at Goldie Ave.",
    "stop_code":1021,
    "stop_name":"Paisley Rd. at Goldie Ave.",
    "stop_desc":"",
    "stop_lat":43.536911,
    "stop_lon":-80.268142,
    "zone_id":"",
    "stop_url":"",
    "location_type":"",
    "parent_station":""
  },
  {
    "stop_id":"Route10-1022_Paisley Rd. at Alma St.",
    "stop_code":1022,
    "stop_name":"Paisley Rd. at Alma St.",
    "stop_desc":"",
    "stop_lat":43.538742,
    "stop_lon":-80.265622,
    "zone_id":"",
    "stop_url":"",
    "location_type":"",
    "parent_station":""
  },
  {
    "stop_id":"Route10-1023_Paisley Rd. at Edinburgh Rd. N.",
    "stop_code":1023,
    "stop_name":"Paisley Rd. at Edinburgh Rd. N.",
    "stop_desc":"",
    "stop_lat":43.540451,
    "stop_lon":-80.263289,
    "zone_id":"",
    "stop_url":"",
    "location_type":"",
    "parent_station":""
  },
  {
    "stop_id":"Route10-1024_Paisley St. at Yorkshire St. N.",
    "stop_code":1024,
    "stop_name":"Paisley St. at Yorkshire St. N.",
    "stop_desc":"",
    "stop_lat":43.542516,
    "stop_lon":-80.258347,
    "zone_id":"",
    "stop_url":"",
    "location_type":"",
    "parent_station":""
  },
  {
    "stop_id":"Route10-1025_Paisley St. at Glasgow St.",
    "stop_code":1025,
    "stop_name":"Paisley St. at Glasgow St.",
    "stop_desc":"",
    "stop_lat":43.543289,
    "stop_lon":-80.256822,
    "zone_id":"",
    "stop_url":"",
    "location_type":"",
    "parent_station":""
  },
  {
    "stop_id":"Route10-1026_Paisley St. at Norfolk St.",
    "stop_code":1026,
    "stop_name":"Paisley St. at Norfolk St.",
    "stop_desc":"",
    "stop_lat":43.545130,
    "stop_lon":-80.253188,
    "zone_id":"",
    "stop_url":"",
    "location_type":"",
    "parent_station":""
  },
  {
    "stop_id":"Route10-1027_St George's Square IF Shoe store",
    "stop_code":1027,
    "stop_name":"St George's Square IF Shoe store",
    "stop_desc":"",
    "stop_lat":43.545578,
    "stop_lon":-80.249017,
    "zone_id":"",
    "stop_url":"",
    "location_type":"",
    "parent_station":""
  },
  {
    "stop_id":"Route10-1028_Guelph Central Station",
    "stop_code":1028,
    "stop_name":"Guelph Central Station",
    "stop_desc":"",
    "stop_lat":43.545180,
    "stop_lon":-80.246050,
    "zone_id":"",
    "stop_url":"",
    "location_type":"",
    "parent_station":""
  },
  {
    "stop_id":"Route11-1100_Guelph Central Station",
    "stop_code":1100,
    "stop_name":"Guelph Central Station",
    "stop_desc":"",
    "stop_lat":43.545180,
    "stop_lon":-80.246050,
    "zone_id":"",
    "stop_url":"",
    "location_type":"",
    "parent_station":""
  },
  {
    "stop_id":"Route11-1101_Norfolk St. at Albion",
    "stop_code":1101,
    "stop_name":"Norfolk St. at Albion",
    "stop_desc":"",
    "stop_lat":43.544122,
    "stop_lon":-80.250720,
    "zone_id":"",
    "stop_url":"",
    "location_type":"",
    "parent_station":""
  },
  {
    "stop_id":"Route11-1102_Suffolk St. W. at Norfolk St.",
    "stop_code":1102,
    "stop_name":"Suffolk St. W. at Norfolk St.",
    "stop_desc":"",
    "stop_lat":43.547351,
    "stop_lon":-80.254939,
    "zone_id":"",
    "stop_url":"",
    "location_type":"",
    "parent_station":""
  },
  {
    "stop_id":"Route11-1103_Suffolk St. W. at Dublin St.",
    "stop_code":1103,
    "stop_name":"Suffolk St. W. at Dublin St.",
    "stop_desc":"",
    "stop_lat":43.546415,
    "stop_lon":-80.256760,
    "zone_id":"",
    "stop_url":"",
    "location_type":"",
    "parent_station":""
  },
  {
    "stop_id":"Route11-1104_Suffolk St. W. at Glasgow St.",
    "stop_code":1104,
    "stop_name":"Suffolk St. W. at Glasgow St.",
    "stop_desc":"",
    "stop_lat":43.545548,
    "stop_lon":-80.258462,
    "zone_id":"",
    "stop_url":"",
    "location_type":"",
    "parent_station":""
  },
  {
    "stop_id":"Route11-1105_Suffolk St. W. at Yorkshire St. N.",
    "stop_code":1105,
    "stop_name":"Suffolk St. W. at Yorkshire St. N.",
    "stop_desc":"",
    "stop_lat":43.544199,
    "stop_lon":-80.260931,
    "zone_id":"",
    "stop_url":"",
    "location_type":"",
    "parent_station":""
  },
  {
    "stop_id":"Route11-1106_Suffolk St. W. at Edinburgh Rd. N.",
    "stop_code":1106,
    "stop_name":"Suffolk St. W. at Edinburgh Rd. N.",
    "stop_desc":"",
    "stop_lat":43.542564,
    "stop_lon":-80.264131,
    "zone_id":"",
    "stop_url":"",
    "location_type":"",
    "parent_station":""
  },
  {
    "stop_id":"Route11-1107_Edinburgh Rd. N. at Mercer St.",
    "stop_code":1107,
    "stop_name":"Edinburgh Rd. N. at Mercer St.",
    "stop_desc":"",
    "stop_lat":43.542856,
    "stop_lon":-80.265335,
    "zone_id":"",
    "stop_url":"",
    "location_type":"",
    "parent_station":""
  },
  {
    "stop_id":"Route11-1108_Willow Rd. at Dawson Rd.",
    "stop_code":1108,
    "stop_name":"Willow Rd. at Dawson Rd.",
    "stop_desc":"",
    "stop_lat":43.545391,
    "stop_lon":-80.271529,
    "zone_id":"",
    "stop_url":"",
    "location_type":"",
    "parent_station":""
  },
  {
    "stop_id":"Route11-1109_Dawson Rd. at Shelldale Cres.",
    "stop_code":1109,
    "stop_name":"Dawson Rd. at Shelldale Cres.",
    "stop_desc":"",
    "stop_lat":43.545826,
    "stop_lon":-80.274188,
    "zone_id":"",
    "stop_url":"",
    "location_type":"",
    "parent_station":""
  },
  {
    "stop_id":"Route11-1110_Dawson Rd. at Dawson Road Medical Clinic",
    "stop_code":1110,
    "stop_name":"Dawson Rd. at Dawson Road Medical Clinic",
    "stop_desc":"",
    "stop_lat":43.549314,
    "stop_lon":-80.279025,
    "zone_id":"",
    "stop_url":"",
    "location_type":"",
    "parent_station":""
  },
  {
    "stop_id":"Route11-1111_229 Speedvale Ave. W.",
    "stop_code":1111,
    "stop_name":"229 Speedvale Ave. W.",
    "stop_desc":"",
    "stop_lat":43.547790,
    "stop_lon":-80.282995,
    "zone_id":"",
    "stop_url":"",
    "location_type":"",
    "parent_station":""
  },
  {
    "stop_id":"Route11-1112_Speedvale Ave. W. at Silvercreek Pkwy. N.",
    "stop_code":1112,
    "stop_name":"Speedvale Ave. W. at Silvercreek Pkwy. N.",
    "stop_desc":"",
    "stop_lat":43.545027,
    "stop_lon":-80.286831,
    "zone_id":"",
    "stop_url":"",
    "location_type":"",
    "parent_station":""
  },
  {
    "stop_id":"Route11-1113_361 Speedvale Ave. W.",
    "stop_code":1113,
    "stop_name":"361 Speedvale Ave. W.",
    "stop_desc":"",
    "stop_lat":43.542554,
    "stop_lon":-80.290189,
    "zone_id":"",
    "stop_url":"",
    "location_type":"",
    "parent_station":""
  },
  {
    "stop_id":"Route11-1131_Marksham Rd. south of Speedvale Ave. W.",
    "stop_code":1131,
    "stop_name":"Marksham Rd. south of Speedvale Ave. W.",
    "stop_desc":"",
    "stop_lat":43.540700,
    "stop_lon":-80.292026,
    "zone_id":"",
    "stop_url":"",
    "location_type":"",
    "parent_station":""
  },
  {
    "stop_id":"Route11-1114_177 Marksam Rd.",
    "stop_code":1114,
    "stop_name":"177 Marksam Rd.",
    "stop_desc":"",
    "stop_lat":43.540369,
    "stop_lon":-80.291578,
    "zone_id":"",
    "stop_url":"",
    "location_type":"",
    "parent_station":""
  },
  {
    "stop_id":"Route11-1115_145 Marksam Rd.",
    "stop_code":1115,
    "stop_name":"145 Marksam Rd.",
    "stop_desc":"",
    "stop_lat":43.537827,
    "stop_lon":-80.288856,
    "zone_id":"",
    "stop_url":"",
    "location_type":"",
    "parent_station":""
  },
  {
    "stop_id":"Route11-1116_76 Marksam Rd.",
    "stop_code":1116,
    "stop_name":"76 Marksam Rd.",
    "stop_desc":"",
    "stop_lat":43.536977,
    "stop_lon":-80.283222,
    "zone_id":"",
    "stop_url":"",
    "location_type":"",
    "parent_station":""
  },
  {
    "stop_id":"Route11-1117_Willow Rd. at Silvercreek Pkwy.",
    "stop_code":1117,
    "stop_name":"Willow Rd. at Silvercreek Pkwy.",
    "stop_desc":"",
    "stop_lat":43.540246,
    "stop_lon":-80.278258,
    "zone_id":"",
    "stop_url":"",
    "location_type":"",
    "parent_station":""
  },
  {
    "stop_id":"Route11-1118_158 Willow Rd.",
    "stop_code":1118,
    "stop_name":"158 Willow Rd.",
    "stop_desc":"",
    "stop_lat":43.542696,
    "stop_lon":-80.274948,
    "zone_id":"",
    "stop_url":"",
    "location_type":"",
    "parent_station":""
  },
  {
    "stop_id":"Route11-1119_66 Willow Rd.",
    "stop_code":1119,
    "stop_name":"66 Willow Rd.",
    "stop_desc":"",
    "stop_lat":43.543569,
    "stop_lon":-80.273708,
    "zone_id":"",
    "stop_url":"",
    "location_type":"",
    "parent_station":""
  },
  {
    "stop_id":"Route11-1120_26 Willow Rd.",
    "stop_code":1120,
    "stop_name":"26 Willow Rd.",
    "stop_desc":"",
    "stop_lat":43.545212,
    "stop_lon":-80.271456,
    "zone_id":"",
    "stop_url":"",
    "location_type":"",
    "parent_station":""
  },
  {
    "stop_id":"Route11-1121_200 Edinburgh Rd. N.",
    "stop_code":1121,
    "stop_name":"200 Edinburgh Rd. N.",
    "stop_desc":"",
    "stop_lat":43.542215,
    "stop_lon":-80.264745,
    "zone_id":"",
    "stop_url":"",
    "location_type":"",
    "parent_station":""
  },
  {
    "stop_id":"Route11-1122_Paisley St. at Yorkshire St. N.",
    "stop_code":1122,
    "stop_name":"Paisley St. at Yorkshire St. N.",
    "stop_desc":"",
    "stop_lat":43.542516,
    "stop_lon":-80.258347,
    "zone_id":"",
    "stop_url":"",
    "location_type":"",
    "parent_station":""
  },
  {
    "stop_id":"Route11-1123_Paisley St. at Glasgow St.",
    "stop_code":1123,
    "stop_name":"Paisley St. at Glasgow St.",
    "stop_desc":"",
    "stop_lat":43.543289,
    "stop_lon":-80.256822,
    "zone_id":"",
    "stop_url":"",
    "location_type":"",
    "parent_station":""
  },
  {
    "stop_id":"Route11-1124_Paisley St. at Norfolk St.",
    "stop_code":1124,
    "stop_name":"Paisley St. at Norfolk St.",
    "stop_desc":"",
    "stop_lat":43.54513,
    "stop_lon":-80.253188,
    "zone_id":"",
    "stop_url":"",
    "location_type":"",
    "parent_station":""
  },
  {
    "stop_id":"Route11-1130_St George's Square IF Shoe store",
    "stop_code":1130,
    "stop_name":"St George's Square IF Shoe store",
    "stop_desc":"",
    "stop_lat":43.545578,
    "stop_lon":-80.249017,
    "zone_id":"",
    "stop_url":"",
    "location_type":"",
    "parent_station":""
  },
  {
    "stop_id":"Route11-1125_Guelph Central Station",
    "stop_code":1125,
    "stop_name":"Guelph Central Station",
    "stop_desc":"",
    "stop_lat":43.545180,
    "stop_lon":-80.246050,
    "zone_id":"",
    "stop_url":"",
    "location_type":"",
    "parent_station":""
  },
  {
    "stop_id":"Route14-1400_Guelph Central Station",
    "stop_code":1400,
    "stop_name":"Guelph Central Station",
    "stop_desc":"",
    "stop_lat":43.54518,
    "stop_lon":-80.24605,
    "zone_id":"",
    "stop_url":"",
    "location_type":"",
    "parent_station":""
  },
  {
    "stop_id":"Route14-1401_Elizabeth St. at Duke St.",
    "stop_code":1401,
    "stop_name":"Elizabeth St. at Duke St.",
    "stop_desc":"",
    "stop_lat":43.5479,
    "stop_lon":-80.241684,
    "zone_id":"",
    "stop_url":"",
    "location_type":"",
    "parent_station":""
  },
  {
    "stop_id":"Route14-1402_65 Elizabeth St.",
    "stop_code":1402,
    "stop_name":"65 Elizabeth St.",
    "stop_desc":"",
    "stop_lat":43.549022,
    "stop_lon":-80.240144,
    "zone_id":"",
    "stop_url":"",
    "location_type":"",
    "parent_station":""
  },
  {
    "stop_id":"Route14-1403_Elizabeth St. at Morris St.",
    "stop_code":1403,
    "stop_name":"Elizabeth St. at Morris St.",
    "stop_desc":"",
    "stop_lat":43.550865,
    "stop_lon":-80.237719,
    "zone_id":"",
    "stop_url":"",
    "location_type":"",
    "parent_station":""
  },
  {
    "stop_id":"Route14-1404_Elizabeth St. at Stevenson St.",
    "stop_code":1404,
    "stop_name":"Elizabeth St. at Stevenson St.",
    "stop_desc":"",
    "stop_lat":43.552852,
    "stop_lon":-80.235072,
    "zone_id":"",
    "stop_url":"",
    "location_type":"",
    "parent_station":""
  },
  {
    "stop_id":"Route14-1405_Elizabeth St. at Victoria Rd. N.",
    "stop_code":1405,
    "stop_name":"Elizabeth St. at Victoria Rd. N.",
    "stop_desc":"",
    "stop_lat":43.555192,
    "stop_lon":-80.229946,
    "zone_id":"",
    "stop_url":"",
    "location_type":"",
    "parent_station":""
  },
  {
    "stop_id":"Route14-1406_Grange Rd. at Victoria Rd. N.",
    "stop_code":1406,
    "stop_name":"Grange Rd. at Victoria Rd. N.",
    "stop_desc":"",
    "stop_lat":43.55779,
    "stop_lon":-80.231868,
    "zone_id":"",
    "stop_url":"",
    "location_type":"",
    "parent_station":""
  },
  {
    "stop_id":"Route14-1407_Grange Rd. at Schroder Cres.",
    "stop_code":1407,
    "stop_name":"Grange Rd. at Schroder Cres.",
    "stop_desc":"",
    "stop_lat":43.559965,
    "stop_lon":-80.22695,
    "zone_id":"",
    "stop_url":"",
    "location_type":"",
    "parent_station":""
  },
  {
    "stop_id":"Route14-1408_Grange Rd. at Breesgarden Lane",
    "stop_code":1408,
    "stop_name":"Grange Rd. at Breesgarden Lane",
    "stop_desc":"",
    "stop_lat":43.564124,
    "stop_lon":-80.222922,
    "zone_id":"",
    "stop_url":"",
    "location_type":"",
    "parent_station":""
  },
  {
    "stop_id":"Route14-1409_Grange Rd. at Ralston Dr.",
    "stop_code":1409,
    "stop_name":"Grange Rd. at Ralston Dr.",
    "stop_desc":"",
    "stop_lat":43.567439,
    "stop_lon":-80.222527,
    "zone_id":"",
    "stop_url":"",
    "location_type":"",
    "parent_station":""
  },
  {
    "stop_id":"Route14-1410_Grange Rd. at Ken Danby School",
    "stop_code":1410,
    "stop_name":"Grange Rd. at Ken Danby School",
    "stop_desc":"",
    "stop_lat":43.570595,
    "stop_lon":-80.221717,
    "zone_id":"",
    "stop_url":"",
    "location_type":"",
    "parent_station":""
  },
  {
    "stop_id":"Route14-1411_Watson Pkwy. N. South of Grange Rd. N.",
    "stop_code":1411,
    "stop_name":"Watson Pkwy. N. South of Grange Rd.. N.",
    "stop_desc":"",
    "stop_lat":43.573407,
    "stop_lon":-80.217850,
    "zone_id":"",
    "stop_url":"",
    "location_type":"",
    "parent_station":""
  },
  {
    "stop_id":"Route14-1412_Watson Pkwy. N. at Fleming Rd.",
    "stop_code":1412,
    "stop_name":"Watson Pkwy. N. at Fleming Rd.",
    "stop_desc":"",
    "stop_lat":43.570527,
    "stop_lon":-80.21377,
    "zone_id":"",
    "stop_url":"",
    "location_type":"",
    "parent_station":""
  },
  {
    "stop_id":"Route14-1413_Watson Pkwy. N. at Library",
    "stop_code":1413,
    "stop_name":"Watson Pkwy. N. at Library",
    "stop_desc":"",
    "stop_lat":43.566571,
    "stop_lon":-80.211793,
    "zone_id":"",
    "stop_url":"",
    "location_type":"",
    "parent_station":""
  },
  {
    "stop_id":"Route14-1414_Starwood Dr. at Fleming Rd.",
    "stop_code":1414,
    "stop_name":"Starwood Dr. at Fleming Rd.",
    "stop_desc":"",
    "stop_lat":43.566464,
    "stop_lon":-80.217997,
    "zone_id":"",
    "stop_url":"",
    "location_type":"",
    "parent_station":""
  },
  {
    "stop_id":"Route14-1415_Starwood Dr. at Ralston Dr.",
    "stop_code":1415,
    "stop_name":"Starwood Dr. at Ralston Dr.",
    "stop_desc":"",
    "stop_lat":43.566748,
    "stop_lon":-80.221188,
    "zone_id":"",
    "stop_url":"",
    "location_type":"",
    "parent_station":""
  },
  {
    "stop_id":"Route14-1416_Grange Rd. at Silurian Dr.",
    "stop_code":1416,
    "stop_name":"Grange Rd. at Silurian Dr.",
    "stop_desc":"",
    "stop_lat":43.565688,
    "stop_lon":-80.22304,
    "zone_id":"",
    "stop_url":"",
    "location_type":"",
    "parent_station":""
  },
  {
    "stop_id":"Route14-1417_Grange Rd. at Auden Rd.",
    "stop_code":1417,
    "stop_name":"Grange Rd. at Auden Rd.",
    "stop_desc":"",
    "stop_lat":43.560584,
    "stop_lon":-80.22639,
    "zone_id":"",
    "stop_url":"",
    "location_type":"",
    "parent_station":""
  },
  {
    "stop_id":"Route14-1418_Grange Rd. at St. James Park",
    "stop_code":1418,
    "stop_name":"Grange Rd. at St. James Park",
    "stop_desc":"",
    "stop_lat":43.559028,
    "stop_lon":-80.228522,
    "zone_id":"",
    "stop_url":"",
    "location_type":"",
    "parent_station":""
  },
  {
    "stop_id":"Route14-1419_Victoria Rd. N. at Grange Rd.",
    "stop_code":1419,
    "stop_name":"Victoria Rd. N. at Grange Rd.",
    "stop_desc":"",
    "stop_lat":43.556903,
    "stop_lon":-80.231,
    "zone_id":"",
    "stop_url":"",
    "location_type":"",
    "parent_station":""
  },
  {
    "stop_id":"Route14-1420_Elizabeth St. at Victoria Rd. N.",
    "stop_code":1420,
    "stop_name":"Elizabeth St. at Victoria Rd. N.",
    "stop_desc":"",
    "stop_lat":43.555289,
    "stop_lon":-80.230253,
    "zone_id":"",
    "stop_url":"",
    "location_type":"",
    "parent_station":""
  },
  {
    "stop_id":"Route14-1421_Elizabeth St. at Stevenson St.",
    "stop_code":1421,
    "stop_name":"Elizabeth St. at Stevenson St.",
    "stop_desc":"",
    "stop_lat":43.553328,
    "stop_lon":-80.234705,
    "zone_id":"",
    "stop_url":"",
    "location_type":"",
    "parent_station":""
  },
  {
    "stop_id":"Route14-1422_Elizabeth St. at Morris St.",
    "stop_code":1422,
    "stop_name":"Elizabeth St. at Morris St.",
    "stop_desc":"",
    "stop_lat":43.551418,
    "stop_lon":-80.237208,
    "zone_id":"",
    "stop_url":"",
    "location_type":"",
    "parent_station":""
  },
  {
    "stop_id":"Route14-1423_Elizabeth St. at Huron St.",
    "stop_code":1423,
    "stop_name":"Elizabeth St. at Huron St.",
    "stop_desc":"",
    "stop_lat":43.549593,
    "stop_lon":-80.239644,
    "zone_id":"",
    "stop_url":"",
    "location_type":"",
    "parent_station":""
  },
  {
    "stop_id":"Route14-1424_Elizabeth St. at Red Chevron Club",
    "stop_code":1424,
    "stop_name":"Elizabeth St. at Red Chevron Club",
    "stop_desc":"",
    "stop_lat":43.548577,
    "stop_lon":-80.240986,
    "zone_id":"",
    "stop_url":"",
    "location_type":"",
    "parent_station":""
  },
  {
    "stop_id":"Route14-1425_Guelph Central Station",
    "stop_code":1425,
    "stop_name":"Guelph Central Station",
    "stop_desc":"",
    "stop_lat":43.54518,
    "stop_lon":-80.24605,
    "zone_id":"",
    "stop_url":"",
    "location_type":"",
    "parent_station":""
  },
  {
    "stop_id":"Route20-2000_Guelph Central Station",
    "stop_code":2000,
    "stop_name":"Guelph Central Station",
    "stop_desc":"",
    "stop_lat":43.545180,
    "stop_lon":-80.246050,
    "zone_id":"",
    "stop_url":"",
    "location_type":"",
    "parent_station":""
  },
  {
    "stop_id":"Route20-2001_Woolwich St. at Norwich St. E.",
    "stop_code":2001,
    "stop_name":"Woolwich St. at Norwich St. E.",
    "stop_desc":"",
    "stop_lat":43.548768,
    "stop_lon":-80.254949,
    "zone_id":"",
    "stop_url":"",
    "location_type":"",
    "parent_station":""
  },
  {
    "stop_id":"Route20-2002_Willow Rd. at Dawson Rd.",
    "stop_code":2002,
    "stop_name":"Willow Rd. at Dawson Rd.",
    "stop_desc":"",
    "stop_lat":43.545391,
    "stop_lon":-80.271529,
    "zone_id":"",
    "stop_url":"",
    "location_type":"",
    "parent_station":""
  },
  {
    "stop_id":"Route20-2003_Willow Rd. at Willow Road P.S",
    "stop_code":2003,
    "stop_name":"Willow Rd. at Willow Road P.S",
    "stop_desc":"",
    "stop_lat":43.542723,
    "stop_lon":-80.275201,
    "zone_id":"",
    "stop_url":"",
    "location_type":"",
    "parent_station":""
  },
  {
    "stop_id":"Route20-2004_Willow West Mall",
    "stop_code":2004,
    "stop_name":"Willow West Mall",
    "stop_desc":"",
    "stop_lat":43.539628,
    "stop_lon":-80.279519,
    "zone_id":"",
    "stop_url":"",
    "location_type":"",
    "parent_station":""
  },
  {
    "stop_id":"Route20-2005_Willow Rd. at Westwood Public School",
    "stop_code":2005,
    "stop_name":"Willow Rd. at Westwood Public School",
    "stop_desc":"",
    "stop_lat":43.535078,
    "stop_lon":-80.285726,
    "zone_id":"",
    "stop_url":"",
    "location_type":"",
    "parent_station":""
  },
  {
    "stop_id":"Route20-2006_577  Willow Rd. at Church",
    "stop_code":2006,
    "stop_name":"577  Willow Rd. at Church",
    "stop_desc":"",
    "stop_lat":43.533285,
    "stop_lon":-80.288209,
    "zone_id":"",
    "stop_url":"",
    "location_type":"",
    "parent_station":""
  },
  {
    "stop_id":"Route20-2007_Willow Rd. at Flaherty Dr.",
    "stop_code":2007,
    "stop_name":"Willow Rd. at Flaherty Dr.",
    "stop_desc":"",
    "stop_lat":43.52762272,
    "stop_lon":-80.29656172,
    "zone_id":"",
    "stop_url":"",
    "location_type":"",
    "parent_station":""
  },
  {
    "stop_id":"Route20-2008_Elmira Rd N. at Flaherty Dr.",
    "stop_code":2008,
    "stop_name":"Elmira Rd N. at Flaherty Dr.",
    "stop_desc":"",
    "stop_lat":43.530528,
    "stop_lon":-80.303578,
    "zone_id":"",
    "stop_url":"",
    "location_type":"",
    "parent_station":""
  },
  {
    "stop_id":"Route20-2009_Elmira Rd. N. at Independence Pl.",
    "stop_code":2009,
    "stop_name":"Elmira Rd. N. at Independence Pl.",
    "stop_desc":"",
    "stop_lat":43.53318,
    "stop_lon":-80.307097,
    "zone_id":"",
    "stop_url":"",
    "location_type":"",
    "parent_station":""
  },
  {
    "stop_id":"Route20-2010_Elmira Rd. at Massey Rd.",
    "stop_code":2010,
    "stop_name":"Elmira Rd. at Massey Rd.",
    "stop_desc":"",
    "stop_lat":43.54074,
    "stop_lon":-80.301904,
    "zone_id":"",
    "stop_url":"",
    "location_type":"",
    "parent_station":""
  },
  {
    "stop_id":"Route20-2011_Elmira Rd. at Power Corp",
    "stop_code":2011,
    "stop_name":"Elmira Rd. at Power Corp",
    "stop_desc":"",
    "stop_lat":43.535001,
    "stop_lon":-80.3092,
    "zone_id":"",
    "stop_url":"",
    "location_type":"",
    "parent_station":""
  },
  {
    "stop_id":"Route20-2012_925 Woodlawn Rd.",
    "stop_code":2012,
    "stop_name":"925 Woodlawn Rd.",
    "stop_desc":"",
    "stop_lat":43.535607,
    "stop_lon":-80.318127,
    "zone_id":"",
    "stop_url":"",
    "location_type":"",
    "parent_station":""
  },
  {
    "stop_id":"Route20-2013_Across from 498 Governors Rd.",
    "stop_code":2013,
    "stop_name":"Across from 498 Governors Rd.",
    "stop_desc":"",
    "stop_lat":43.533243,
    "stop_lon":-80.321935,
    "zone_id":"",
    "stop_url":"",
    "location_type":"",
    "parent_station":""
  },
  {
    "stop_id":"Route20-2014_110 Malcolm Rd.",
    "stop_code":2014,
    "stop_name":"110 Malcolm Rd.",
    "stop_desc":"",
    "stop_lat":43.536058,
    "stop_lon":-80.322418,
    "zone_id":"",
    "stop_url":"",
    "location_type":"",
    "parent_station":""
  },
  {
    "stop_id":"Route20-2015_50 Malcolm Rd.",
    "stop_code":2015,
    "stop_name":"50 Malcolm Rd.",
    "stop_desc":"",
    "stop_lat":43.537101,
    "stop_lon":-80.320916,
    "zone_id":"",
    "stop_url":"",
    "location_type":"",
    "parent_station":""
  },
  {
    "stop_id":"Route20-2016_14 Malcolm Rd.",
    "stop_code":2016,
    "stop_name":"14 Malcolm Rd.",
    "stop_desc":"",
    "stop_lat":43.538407,
    "stop_lon":-80.319285,
    "zone_id":"",
    "stop_url":"",
    "location_type":"",
    "parent_station":""
  },
  {
    "stop_id":"Route20-2017_2 Malcolm Rd.",
    "stop_code":2017,
    "stop_name":"2 Malcolm Rd.",
    "stop_desc":"",
    "stop_lat":43.539932,
    "stop_lon":-80.316989,
    "zone_id":"",
    "stop_url":"",
    "location_type":"",
    "parent_station":""
  },
  {
    "stop_id":"Route20-2018_450 Michener Rd.",
    "stop_code":2018,
    "stop_name":"450 Michener Rd.",
    "stop_desc":"",
    "stop_lat":43.533818,
    "stop_lon":-80.31935,
    "zone_id":"",
    "stop_url":"",
    "location_type":"",
    "parent_station":""
  },
  {
    "stop_id":"Route20-2019_Michener Rd. at Massey Rd.",
    "stop_code":2019,
    "stop_name":"Michener Rd. at Massey Rd.",
    "stop_desc":"",
    "stop_lat":43.531143,
    "stop_lon":-80.315595,
    "zone_id":"",
    "stop_url":"",
    "location_type":"",
    "parent_station":""
  },
  {
    "stop_id":"Route20-2020_530 Massey Rd.",
    "stop_code":2020,
    "stop_name":"530 Massey Rd.",
    "stop_desc":"",
    "stop_lat":43.532232,
    "stop_lon":-80.31347,
    "zone_id":"",
    "stop_url":"",
    "location_type":"",
    "parent_station":""
  },
  {
    "stop_id":"Route20-2021_446 Massey Rd.",
    "stop_code":2021,
    "stop_name":"446 Massey Rd.",
    "stop_desc":"",
    "stop_lat":43.534705,
    "stop_lon":-80.30978,
    "zone_id":"",
    "stop_url":"",
    "location_type":"",
    "parent_station":""
  },
  {
    "stop_id":"Route20-2022_400 Massey Rd.",
    "stop_code":2022,
    "stop_name":"400 Massey Rd.",
    "stop_desc":"",
    "stop_lat":43.536167,
    "stop_lon":-80.307763,
    "zone_id":"",
    "stop_url":"",
    "location_type":"",
    "parent_station":""
  },
  {
    "stop_id":"Route20-2023_265 Massey Rd.",
    "stop_code":2023,
    "stop_name":"265 Massey Rd.",
    "stop_desc":"",
    "stop_lat":43.539372,
    "stop_lon":-80.30302,
    "zone_id":"",
    "stop_url":"",
    "location_type":"",
    "parent_station":""
  },
  {
    "stop_id":"Route20-2024_Across from 251 Massey Rd.",
    "stop_code":2024,
    "stop_name":"Across from 251 Massey Rd.",
    "stop_desc":"",
    "stop_lat":43.540367,
    "stop_lon":-80.301948,
    "zone_id":"",
    "stop_url":"",
    "location_type":"",
    "parent_station":""
  },
  {
    "stop_id":"Route20-2025_Imperial Rd. N. of Woodlawn Rd. W",
    "stop_code":2025,
    "stop_name":"Imperial Rd. N. of Woodlawn Rd. W",
    "stop_desc":"",
    "stop_lat":43.543773,
    "stop_lon":-80.305638,
    "zone_id":"",
    "stop_url":"",
    "location_type":"",
    "parent_station":""
  },
  {
    "stop_id":"Route20-2026_190 Curtis Dr.",
    "stop_code":2026,
    "stop_name":"190 Curtis Dr.",
    "stop_desc":"",
    "stop_lat":43.549077,
    "stop_lon":-80.306239,
    "zone_id":"",
    "stop_url":"",
    "location_type":"",
    "parent_station":""
  },
  {
    "stop_id":"Route20-2027_Curtis Dr. at Silvercreek Pkwy.",
    "stop_code":2027,
    "stop_name":"Curtis Dr. at Silvercreek Pkwy.",
    "stop_desc":"",
    "stop_lat":43.553665,
    "stop_lon":-80.299931,
    "zone_id":"",
    "stop_url":"",
    "location_type":"",
    "parent_station":""
  },
  {
    "stop_id":"Route20-2028_Silvercreek Pkwy. past Woodlawn Rd.",
    "stop_code":2028,
    "stop_name":"Silvercreek Pkwy. past Woodlawn Rd.",
    "stop_desc":"",
    "stop_lat":43.550834,
    "stop_lon":-80.295854,
    "zone_id":"",
    "stop_url":"",
    "location_type":"",
    "parent_station":""
  },
  {
    "stop_id":"Route20-2029_Silvercreek Pkwy N. at C pbell Rd.",
    "stop_code":2029,
    "stop_name":"Silvercreek Pkwy N. at Campbell Rd.",
    "stop_desc":"",
    "stop_lat":43.548019,
    "stop_lon":-80.29197,
    "zone_id":"",
    "stop_url":"",
    "location_type":"",
    "parent_station":""
  },
  {
    "stop_id":"Route20-2030_254 Silvercreek Pkwy.",
    "stop_code":2030,
    "stop_name":"254 Silvercreek Pkwy.",
    "stop_desc":"",
    "stop_lat":43.544924,
    "stop_lon":-80.287571,
    "zone_id":"",
    "stop_url":"",
    "location_type":"",
    "parent_station":""
  },
  {
    "stop_id":"Route20-2031_214 Silvercreek Pkwy.",
    "stop_code":2031,
    "stop_name":"214 Silvercreek Pkwy.",
    "stop_desc":"",
    "stop_lat":43.542607,
    "stop_lon":-80.28452,
    "zone_id":"",
    "stop_url":"",
    "location_type":"",
    "parent_station":""
  },
  {
    "stop_id":"Route20-2032_130 Silvercreek Pwky.",
    "stop_code":2032,
    "stop_name":"130 Silvercreek Pwky.",
    "stop_desc":"",
    "stop_lat":43.540196,
    "stop_lon":-80.281091,
    "zone_id":"",
    "stop_url":"",
    "location_type":"",
    "parent_station":""
  },
  {
    "stop_id":"Route20-2033_Willow Rd. at Silvercreek Pkwy.",
    "stop_code":2033,
    "stop_name":"Willow Rd. at Silvercreek Pkwy.",
    "stop_desc":"",
    "stop_lat":43.543695,
    "stop_lon":-80.273666,
    "zone_id":"",
    "stop_url":"",
    "location_type":"",
    "parent_station":""
  },
  {
    "stop_id":"Route20-2034_158 Willow Rd.",
    "stop_code":2034,
    "stop_name":"158 Willow Rd.",
    "stop_desc":"",
    "stop_lat":43.54228,
    "stop_lon":-80.275168,
    "zone_id":"",
    "stop_url":"",
    "location_type":"",
    "parent_station":""
  },
  {
    "stop_id":"Route20-2035_66 Willow Rd.",
    "stop_code":2035,
    "stop_name":"66 Willow Rd.",
    "stop_desc":"",
    "stop_lat":43.54497,
    "stop_lon":-80.271821,
    "zone_id":"",
    "stop_url":"",
    "location_type":"",
    "parent_station":""
  },
  {
    "stop_id":"Route20-2036_26 Willow Rd.",
    "stop_code":2036,
    "stop_name":"26 Willow Rd.",
    "stop_desc":"",
    "stop_lat":43.54497,
    "stop_lon":-80.271821,
    "zone_id":"",
    "stop_url":"",
    "location_type":"",
    "parent_station":""
  },
  {
    "stop_id":"Route20-2037_200 Edinburgh Rd. N.",
    "stop_code":2037,
    "stop_name":"200 Edinburgh Rd. N.",
    "stop_desc":"",
    "stop_lat":43.542186,
    "stop_lon":-80.264568,
    "zone_id":"",
    "stop_url":"",
    "location_type":"",
    "parent_station":""
  },
  {
    "stop_id":"Route20-2038_Paisley St. at Yorkshire St. N.",
    "stop_code":2038,
    "stop_name":"Paisley St. at Yorkshire St. N.",
    "stop_desc":"",
    "stop_lat":43.542622,
    "stop_lon":-80.258259,
    "zone_id":"",
    "stop_url":"",
    "location_type":"",
    "parent_station":""
  },
  {
    "stop_id":"Route20-2039_Paisley St. at Glasgow St.",
    "stop_code":2039,
    "stop_name":"Paisley St. at Glasgow St.",
    "stop_desc":"",
    "stop_lat":43.543326,
    "stop_lon":-80.256844,
    "zone_id":"",
    "stop_url":"",
    "location_type":"",
    "parent_station":""
  },
  {
    "stop_id":"Route20-2040_Paisley St. at Norfolk St.",
    "stop_code":2040,
    "stop_name":"Paisley St. at Norfolk St.",
    "stop_desc":"",
    "stop_lat":43.545390,
    "stop_lon":-80.252122,
    "zone_id":"",
    "stop_url":"",
    "location_type":"",
    "parent_station":""
  },
  {
    "stop_id":"Route20-2041_St. George's Square IF Shoe Store.",
    "stop_code":2041,
    "stop_name":"St. George's Square IF Shoe Store.",
    "stop_desc":"",
    "stop_lat":43.545578,
    "stop_lon":-80.249017,
    "zone_id":"",
    "stop_url":"",
    "location_type":"",
    "parent_station":""
  },
  {
    "stop_id":"Route20-2042_Guelph Central Station",
    "stop_code":2042,
    "stop_name":"Guelph Central Station",
    "stop_desc":"",
    "stop_lat":43.545180,
    "stop_lon":-80.246050,
    "zone_id":"",
    "stop_url":"",
    "location_type":"",
    "parent_station":""
  },
  {
    "stop_id":"Route21-2100_Guelph Central Station",
    "stop_code":2100,
    "stop_name":"Guelph Central Station",
    "stop_desc":"",
    "stop_lat":43.545180,
    "stop_lon":-80.24605,
    "zone_id":"",
    "stop_url":"",
    "location_type":"",
    "parent_station":""
  },
  {
    "stop_id":"Route21-_Wellington St. W at K.F.C",
    "stop_code":null,
    "stop_name":"Wellington St. W at K.F.C",
    "stop_desc":"",
    "stop_lat":43.542276,
    "stop_lon":-80.243974,
    "zone_id":"",
    "stop_url":"",
    "location_type":"",
    "parent_station":""
  },
  {
    "stop_id":"Route21-2101_Gordon St. at College Ave. W.",
    "stop_code":2101,
    "stop_name":"Gordon St. at College Ave. W.",
    "stop_desc":"",
    "stop_lat":43.531512,
    "stop_lon":-80.231928,
    "zone_id":"",
    "stop_url":"",
    "location_type":"",
    "parent_station":""
  },
  {
    "stop_id":"Route21-2102_Gordon St. at Stone Rd. W.",
    "stop_code":2102,
    "stop_name":"Gordon St. at Stone Rd. W.",
    "stop_desc":"",
    "stop_lat":43.527351,
    "stop_lon":-80.226173,
    "zone_id":"",
    "stop_url":"",
    "location_type":"",
    "parent_station":""
  },
  {
    "stop_id":"Route21-2103_Gordon St. at Harvard Rd.",
    "stop_code":2103,
    "stop_name":"Gordon St. at Harvard Rd.",
    "stop_desc":"",
    "stop_lat":43.525153,
    "stop_lon":-80.221052,
    "zone_id":"",
    "stop_url":"",
    "location_type":"",
    "parent_station":""
  },
  {
    "stop_id":"Route21-2104_Gordon St. at Kortright Rd. W.",
    "stop_code":2104,
    "stop_name":"Gordon St. at Kortright Rd. W",
    "stop_desc":"",
    "stop_lat":43.522309,
    "stop_lon":-80.213484,
    "zone_id":"",
    "stop_url":"",
    "location_type":"",
    "parent_station":""
  },
  {
    "stop_id":"Route21-2105_Gordon St. at Edinburgh Rd. S.",
    "stop_code":2105,
    "stop_name":"Gordon St. at Edinburgh Rd. S.",
    "stop_desc":"",
    "stop_lat":43.516595,
    "stop_lon":-80.203694,
    "zone_id":"",
    "stop_url":"",
    "location_type":"",
    "parent_station":""
  },
  {
    "stop_id":"Route21-2106_Gordon St. at Arkell Rd.",
    "stop_code":2106,
    "stop_name":"Gordon St. at Arkell Rd.",
    "stop_desc":"",
    "stop_lat":43.513888,
    "stop_lon":-80.19989,
    "zone_id":"",
    "stop_url":"",
    "location_type":"",
    "parent_station":""
  },
  {
    "stop_id":"Route21-2107_Gordon St. at Clairfields Dr.",
    "stop_code":2107,
    "stop_name":"Gordon St. at Clairfields Dr.",
    "stop_desc":"",
    "stop_lat":43.505161,
    "stop_lon":-80.194351,
    "zone_id":"",
    "stop_url":"",
    "location_type":"",
    "parent_station":""
  },
  {
    "stop_id":"Route21-2108_Bishop Macdonell High School",
    "stop_code":2108,
    "stop_name":"Bishop Macdonell High School",
    "stop_desc":"",
    "stop_lat":43.495554,
    "stop_lon":-80.195861,
    "zone_id":"",
    "stop_url":"",
    "location_type":"",
    "parent_station":""
  },
  {
    "stop_id":"Route21-2109_Laird Rd. at Clair Rd. W.",
    "stop_code":2109,
    "stop_name":"Laird Rd. at Clair Rd. W.",
    "stop_desc":"",
    "stop_lat":43.492751,
    "stop_lon":-80.200238,
    "zone_id":"",
    "stop_url":"",
    "location_type":"",
    "parent_station":""
  },
  {
    "stop_id":"Route21-2110_Southgate Dr. at Laird Rd.",
    "stop_code":2110,
    "stop_name":"Southgate Dr. at Laird Rd.",
    "stop_desc":"",
    "stop_lat":43.49437,
    "stop_lon":-80.207405,
    "zone_id":"",
    "stop_url":"",
    "location_type":"",
    "parent_station":""
  },
  {
    "stop_id":"Route21-2111_125 Southgate Dr.",
    "stop_code":2111,
    "stop_name":"125 Southgate Dr.",
    "stop_desc":"",
    "stop_lat":43.497763,
    "stop_lon":-80.211439,
    "zone_id":"",
    "stop_url":"",
    "location_type":"",
    "parent_station":""
  },
  {
    "stop_id":"Route21-2112_180 Southgate Dr.",
    "stop_code":2112,
    "stop_name":"180 Southgate Dr.",
    "stop_desc":"",
    "stop_lat":43.500192,
    "stop_lon":-80.213584,
    "zone_id":"",
    "stop_url":"",
    "location_type":"",
    "parent_station":""
  },
  {
    "stop_id":"Route21-2113_310 Southgate Dr.",
    "stop_code":2113,
    "stop_name":"310 Southgate Dr.",
    "stop_desc":"",
    "stop_lat":43.502246,
    "stop_lon":-80.217576,
    "zone_id":"",
    "stop_url":"",
    "location_type":"",
    "parent_station":""
  },
  {
    "stop_id":"Route21-2114_450 Southgate Dr.",
    "stop_code":2114,
    "stop_name":"450 Southgate Dr.",
    "stop_desc":"",
    "stop_lat":43.500098,
    "stop_lon":-80.219979,
    "zone_id":"",
    "stop_url":"",
    "location_type":"",
    "parent_station":""
  },
  {
    "stop_id":"Route21-2115_525 Southgate Dr.",
    "stop_code":2115,
    "stop_name":"525 Southgate Dr.",
    "stop_desc":"",
    "stop_lat":43.497763,
    "stop_lon":-80.21749,
    "zone_id":"",
    "stop_url":"",
    "location_type":"",
    "parent_station":""
  },
  {
    "stop_id":"Route21-2116_595 Southgate Dr.",
    "stop_code":2116,
    "stop_name":"595 Southgate Dr.",
    "stop_desc":"",
    "stop_lat":43.494526,
    "stop_lon":-80.213713,
    "zone_id":"",
    "stop_url":"",
    "location_type":"",
    "parent_station":""
  },
  {
    "stop_id":"Route21-2117_679 Southgate Dr.",
    "stop_code":2117,
    "stop_name":"679 Southgate Dr.",
    "stop_desc":"",
    "stop_lat":43.49297,
    "stop_lon":-80.209943,
    "zone_id":"",
    "stop_url":"",
    "location_type":"",
    "parent_station":""
  },
  {
    "stop_id":"Route21-2118_Southgate Dr. at Corporate Rd.",
    "stop_code":2118,
    "stop_name":"Southgate Dr. at Corporate Rd.",
    "stop_desc":"",
    "stop_lat":43.492192,
    "stop_lon":-80.208765,
    "zone_id":"",
    "stop_url":"",
    "location_type":"",
    "parent_station":""
  },
  {
    "stop_id":"Route21-2119_Southgate Dr. at Admiral Pl.",
    "stop_code":2119,
    "stop_name":"Southgate Dr. at Admiral Pl.",
    "stop_desc":"",
    "stop_lat":43.491034,
    "stop_lon":-80.207102,
    "zone_id":"",
    "stop_url":"",
    "location_type":"",
    "parent_station":""
  },
  {
    "stop_id":"Route21-2120_829 Southgate Dr.",
    "stop_code":2120,
    "stop_name":"829 Southgate Dr.",
    "stop_desc":"",
    "stop_lat":43.489566,
    "stop_lon":-80.203991,
    "zone_id":"",
    "stop_url":"",
    "location_type":"",
    "parent_station":""
  },
  {
    "stop_id":"Route21-2121_300 Clair (Water Tower)",
    "stop_code":2121,
    "stop_name":"300 Clair (Water Tower)",
    "stop_desc":"",
    "stop_lat":43.492158,
    "stop_lon":-80.200168,
    "zone_id":"",
    "stop_url":"",
    "location_type":"",
    "parent_station":""
  },
  {
    "stop_id":"Route21-2122_Bishop Macdonell High School",
    "stop_code":2122,
    "stop_name":"Bishop Macdonell High School",
    "stop_desc":"",
    "stop_lat":43.495285,
    "stop_lon":-80.195641,
    "zone_id":"",
    "stop_url":"",
    "location_type":"",
    "parent_station":""
  },
  {
    "stop_id":"Route21-2123_Gosling Gdns. at Food Basics",
    "stop_code":2123,
    "stop_name":"Gosling Gdns. at Food Basics",
    "stop_desc":"",
    "stop_lat":43.499368,
    "stop_lon":-80.191593,
    "zone_id":"",
    "stop_url":"",
    "location_type":"",
    "parent_station":""
  },
  {
    "stop_id":"Route21-2124_Gosling Gdns. Park",
    "stop_code":2124,
    "stop_name":"Gosling Gdns. Park",
    "stop_desc":"",
    "stop_lat":43.501366,
    "stop_lon":-80.192967,
    "zone_id":"",
    "stop_url":"",
    "location_type":"",
    "parent_station":""
  },
  {
    "stop_id":"Route21-2125_Gosling Gdns. at Clairfields Dr. W.",
    "stop_code":2125,
    "stop_name":"Gosling Gdns. at Clairfields Dr. W.",
    "stop_desc":"",
    "stop_lat":43.503521,
    "stop_lon":-80.192967,
    "zone_id":"",
    "stop_url":"",
    "location_type":"",
    "parent_station":""
  },
  {
    "stop_id":"Route21-2126_Gordon St. north of Clairfields Dr.",
    "stop_code":2126,
    "stop_name":"Gordon St. north of Clairfields Dr.",
    "stop_desc":"",
    "stop_lat":43.505801,
    "stop_lon":-80.194376,
    "zone_id":"",
    "stop_url":"",
    "location_type":"",
    "parent_station":""
  },
  {
    "stop_id":"Route21-2127_Gordon St. at Lowes Rd.",
    "stop_code":2127,
    "stop_name":"Gordon St. at Lowes Rd.",
    "stop_desc":"",
    "stop_lat":43.508565,
    "stop_lon":-80.195517,
    "zone_id":"",
    "stop_url":"",
    "location_type":"",
    "parent_station":""
  },
  {
    "stop_id":"Route21-2128_Gordon St. at Continuing Educ.",
    "stop_code":2128,
    "stop_name":"Gordon St. at Continuing Educ.",
    "stop_desc":"",
    "stop_lat":43.511755,
    "stop_lon":-80.196955,
    "zone_id":"",
    "stop_url":"",
    "location_type":"",
    "parent_station":""
  },
  {
    "stop_id":"Route21-2129_Gordon St. at Arkell Rd.",
    "stop_code":2129,
    "stop_name":"Gordon St. at Arkell Rd.",
    "stop_desc":"",
    "stop_lat":43.513988,
    "stop_lon":-80.199607,
    "zone_id":"",
    "stop_url":"",
    "location_type":"",
    "parent_station":""
  },
  {
    "stop_id":"Route21-2130_Gordon St. at Valley Rd.",
    "stop_code":2130,
    "stop_name":"Gordon St. at Valley Rd.",
    "stop_desc":"",
    "stop_lat":43.516628,
    "stop_lon":-80.203268,
    "zone_id":"",
    "stop_url":"",
    "location_type":"",
    "parent_station":""
  },